HTTP/1.1 200 OK
X-Powered-By: Express
Access-Control-Allow-Origin: *
Content-Type: application/json; charset=utf-8
Content-Length: 203210
ETag: W/"319ca-1FTUMTTNjJ2xPxGi59x4F8/H9B0"
Date: Thu, 18 Apr 2024 09:23:05 GMT
Connection: close

{
  "gasStations": [
    {
      "location_id": "04B27C4A-CF48-11EB-A3C0-CB477F46E723",
      "brand_name": "Z Energy",
      "location_name": "Z Aerodrome Road truck stop",
      "latitude": -38.666499169341,
      "longitude": 177.96274210418,
      "address_line1": "Aerodrome Road",
      "city": "Gisborne",
      "state_province": "Gisborne",
      "postal_code": "3801",
      "country": "NZ"
    },
    {
      "location_id": "074DE606-CF48-11EB-96B0-85D5F5BBBCBF",
      "brand_name": "Z Energy",
      "location_name": "Z Hornby North truck stop",
      "latitude": -43.53668,
      "longitude": 172.52934,
      "address_line1": "74 Carmen Road",
      "city": "Christchurch",
      "state_province": "Canterbury",
      "postal_code": "8042",
      "country": "NZ"
    },
    {
      "location_id": "EFA28D0E-CF47-11EB-BDED-39D303D34FF1",
      "brand_name": "Z Energy",
      "location_name": "Z 11th Ave",
      "latitude": -37.697963116256,
      "longitude": 176.1589688977,
      "address_line1": "Cnr Eleventh Avenue and Cameron Road, Tauranga",
      "city": "Tauranga",
      "state_province": "Bay of Plenty",
      "postal_code": "3110",
      "country": "NZ"
    },
    {
      "location_id": "EFB32754-CF47-11EB-A46A-3FEA771451EE",
      "brand_name": "Z Energy",
      "location_name": "Z 15th Ave",
      "latitude": -37.710814222981,
      "longitude": 176.16498459543,
      "address_line1": "10-18 Fifteenth Avenue, Tauranga",
      "city": "Tauranga",
      "state_province": "Bay of Plenty",
      "postal_code": "3112",
      "country": "NZ"
    },
    {
      "location_id": "F15072EC-CF47-11EB-B91B-616886A9C8C9",
      "brand_name": "Z Energy",
      "location_name": "Z Addington",
      "latitude": -43.5458753,
      "longitude": 172.6086919,
      "address_line1": "250 Lincoln Road, Addington, Christchurch",
      "city": "Christchurch",
      "state_province": "Canterbury",
      "postal_code": "8024",
      "country": "NZ"
    },
    {
      "location_id": "FB25BAD4-CF47-11EB-84D0-EBB87F644105",
      "brand_name": "Z Energy",
      "location_name": "Z Albany",
      "latitude": -36.725334141236,
      "longitude": 174.69788931423,
      "address_line1": "287 Oteha Valley Road, Albany",
      "city": "Albany",
      "state_province": "Auckland",
      "postal_code": "632",
      "country": "NZ"
    },
    {
      "location_id": "F1799064-CF47-11EB-87E7-C1735C317177",
      "brand_name": "Z Energy",
      "location_name": "Z Andy Bay",
      "latitude": -45.8926326,
      "longitude": 170.5032151,
      "address_line1": "333 Andersons Bay Road, Andy Bay, Dunedin",
      "city": "Dunedin",
      "state_province": "Otago",
      "postal_code": "9012",
      "country": "NZ"
    },
    {
      "location_id": "EC24FFE0-CF47-11EB-981A-D5A8683BF4AB",
      "brand_name": "Z Energy",
      "location_name": "Z Avondale",
      "latitude": -36.895889353494,
      "longitude": 174.68851652042,
      "address_line1": "50-60 Ash Street, Avondale, West Auckland",
      "city": "West Auckland",
      "state_province": "Auckland",
      "postal_code": "1026",
      "country": "NZ"
    },
    {
      "location_id": "EFC7FFF8-CF47-11EB-AB95-C1C832370C53",
      "brand_name": "Z Energy",
      "location_name": "Z Awakeri truck stop",
      "latitude": -37.99859078799,
      "longitude": 176.89143834769,
      "address_line1": "State Highway 30, Whakatane",
      "city": "Whakatane",
      "state_province": "Bay of Plenty",
      "postal_code": "3191",
      "country": "NZ"
    },
    {
      "location_id": "F07B3D84-CF47-11EB-AB3C-21DD4B4E6585",
      "brand_name": "Z Energy",
      "location_name": "Z Barrington",
      "latitude": -43.557241970885,
      "longitude": 172.61863231874,
      "address_line1": "253 Barrington Street, Christchurch",
      "city": "Christchurch",
      "state_province": "Canterbury",
      "postal_code": "8024",
      "country": "NZ"
    },
    {
      "location_id": "EC2CD4E0-CF47-11EB-BAC2-477414E07BCA",
      "brand_name": "Z Energy",
      "location_name": "Z Beach Rd truck stop",
      "latitude": -36.8497097,
      "longitude": 174.7749625,
      "address_line1": "150 Beach Road",
      "city": "Auckland",
      "state_province": "Auckland",
      "postal_code": "1010",
      "country": "NZ"
    },
    {
      "location_id": "F08C5A42-CF47-11EB-A8CD-79EE309376B5",
      "brand_name": "Z Energy",
      "location_name": "Z Belfast",
      "latitude": -43.451462696317,
      "longitude": 172.62763320951,
      "address_line1": "Cnr Main North Road and Johns Road, Belfast",
      "city": "Belfast",
      "state_province": "Canterbury",
      "postal_code": "8051",
      "country": "NZ"
    },
    {
      "location_id": "EF9289C2-CF47-11EB-BF48-A377ADB6F0A5",
      "brand_name": "Z Energy",
      "location_name": "Z Bethlehem",
      "latitude": -37.6960931,
      "longitude": 176.106981,
      "address_line1": "253B State Highway 2",
      "city": "Tauranga",
      "state_province": "Bay of Plenty",
      "postal_code": "3110",
      "country": "NZ"
    },
    {
      "location_id": "F099F030-CF47-11EB-8169-BF3F83C1B5E0",
      "brand_name": "Z Energy",
      "location_name": "Z Bishopdale",
      "latitude": -43.489796423082,
      "longitude": 172.59314938786,
      "address_line1": "210 Harewood Road, Bishopdale, Christchurch",
      "city": "Christchurch",
      "state_province": "Canterbury",
      "postal_code": "8053",
      "country": "NZ"
    },
    {
      "location_id": "EC41AC6C-CF47-11EB-86BF-D7CD5154EF1B",
      "brand_name": "Z Energy",
      "location_name": "Z Botany Downs",
      "latitude": -36.930982001828,
      "longitude": 174.91091609,
      "address_line1": "550 Te Irirangi Drive, Botany Downs, Auckland",
      "city": "Auckland",
      "state_province": "Auckland",
      "postal_code": "2013",
      "country": "NZ"
    },
    {
      "location_id": "FAD096B2-CF47-11EB-980F-7BDBC70CB5D0",
      "brand_name": "Z Energy",
      "location_name": "Z Broadway",
      "latitude": -41.325588450062,
      "longitude": 174.810146589,
      "address_line1": "Cnr Calabar Rd and Broadway, Strathmore",
      "city": "Strathmore",
      "state_province": "Taranaki",
      "postal_code": "6022",
      "country": "NZ"
    },
    {
      "location_id": "F0A87286-CF47-11EB-ADAB-1DB7B2DB8A80",
      "brand_name": "Z Energy",
      "location_name": "Z Brougham St",
      "latitude": -43.548206221601,
      "longitude": 172.65706498604,
      "address_line1": "495 Brougham Street",
      "city": "Christchurch",
      "state_province": "Canterbury",
      "postal_code": "8023",
      "country": "NZ"
    },
    {
      "location_id": "EC5BCBF6-CF47-11EB-93FC-D14633B7EF6F",
      "brand_name": "Z Energy",
      "location_name": "Z Browns Rd",
      "latitude": -37.017628317766,
      "longitude": 174.86209934715,
      "address_line1": "270 Roscommon Road",
      "city": "Manukau",
      "state_province": "Auckland",
      "postal_code": "2104",
      "country": "NZ"
    },
    {
      "location_id": "F0B814E8-CF47-11EB-ACFC-0938EB743E27",
      "brand_name": "Z Energy",
      "location_name": "Z Bryndwr",
      "latitude": -43.510460227366,
      "longitude": 172.60760176619,
      "address_line1": "52 Strowan Road, Bryndwr, Christchurch",
      "city": "Christchurch",
      "state_province": "Canterbury",
      "postal_code": "8052",
      "country": "NZ"
    },
    {
      "location_id": "F4F9D6E0-CF47-11EB-9014-7941AC0EBA71",
      "brand_name": "Z Energy",
      "location_name": "Z Cambridge",
      "latitude": -37.891488261802,
      "longitude": 175.46704738652,
      "address_line1": "81 Victoria Street, Cambridge",
      "city": "Cambridge",
      "state_province": "Waikato",
      "postal_code": "3434",
      "country": "NZ"
    },
    {
      "location_id": "F0D5CF4C-CF47-11EB-AD4E-031601EBE9F8",
      "brand_name": "Z Energy",
      "location_name": "Z Carlton Corner",
      "latitude": -43.519971535266,
      "longitude": 172.62709868626,
      "address_line1": "1 Papanui Road, Christchurch",
      "city": "Christchurch",
      "state_province": "Canterbury",
      "postal_code": "8014",
      "country": "NZ"
    },
    {
      "location_id": "F02FB4E0-CF47-11EB-8612-D52A794D22DA",
      "brand_name": "Z Energy",
      "location_name": "Z Caroline Bay",
      "latitude": -44.393591639947,
      "longitude": 171.24783046355,
      "address_line1": "62 Theodosia Street, Timaru",
      "city": "Timaru",
      "state_province": "Canterbury",
      "postal_code": "7910",
      "country": "NZ"
    },
    {
      "location_id": "F0F32F7E-CF47-11EB-9700-B5219CBA5C2C",
      "brand_name": "Z Energy",
      "location_name": "Z Cashmere",
      "latitude": -43.5653494,
      "longitude": 172.6365833,
      "address_line1": "23-25 Colombo Street, Beckenham, Christchurch",
      "city": "Christchurch",
      "state_province": "Canterbury",
      "postal_code": "8022",
      "country": "NZ"
    },
    {
      "location_id": "EF537854-CF47-11EB-B176-57DBA342C68C",
      "brand_name": "Z Energy",
      "location_name": "Z Central Parade",
      "latitude": -37.654267780389,
      "longitude": 176.19952405147,
      "address_line1": "500 Maunganui Road, Mount Maunganui",
      "city": "Mount Maunganui",
      "state_province": "Bay of Plenty",
      "postal_code": "3116",
      "country": "NZ"
    },
    {
      "location_id": "EC6FD10A-CF47-11EB-9111-D508EAE53993",
      "brand_name": "Z Energy",
      "location_name": "Z Clevedon",
      "latitude": -36.993465098263,
      "longitude": 175.03708785024,
      "address_line1": "24-28 Papakura-Clevedon Road",
      "city": "24-28 Papakura-Clevedon Road",
      "state_province": "Auckland",
      "postal_code": "2582",
      "country": "NZ"
    },
    {
      "location_id": "F5C78E50-CF47-11EB-BEC3-3DD4D1E18C97",
      "brand_name": "Z Energy",
      "location_name": "Z Constable St",
      "latitude": -41.313260082973,
      "longitude": 174.78191683252,
      "address_line1": "35 Constable St, Newtown, Wellington",
      "city": "Wellington",
      "state_province": "Wellington",
      "postal_code": "6021",
      "country": "NZ"
    },
    {
      "location_id": "F32DF2D8-CF47-11EB-9B9E-0B9E69A04C32",
      "brand_name": "Z Energy",
      "location_name": "Z Constellation Dr truck stop",
      "latitude": -36.748021972479,
      "longitude": 174.7313142696,
      "address_line1": "36 Constellation Drive & Vega Place",
      "city": "Auckland",
      "state_province": "Auckland",
      "postal_code": "632",
      "country": "NZ"
    },
    {
      "location_id": "F31960E8-CF47-11EB-9351-BFB18E1601BE",
      "brand_name": "Z Energy",
      "location_name": "Z Courtenay St",
      "latitude": -39.057732236053,
      "longitude": 174.07669827988,
      "address_line1": "Cnr Courtenay Street and Liardet Street, New Plymouth",
      "city": "New Plymouth",
      "state_province": "Taranaki",
      "postal_code": "4310",
      "country": "NZ"
    },
    {
      "location_id": "F3B41F0C-CF47-11EB-82A7-832E630B9D9E",
      "brand_name": "Z Energy",
      "location_name": "Z Cromwell truck stop",
      "latitude": -45.047558563814,
      "longitude": 169.17626382069,
      "address_line1": "McNaulty Road",
      "city": "Cromwell",
      "state_province": "Otago",
      "postal_code": "9310",
      "country": "NZ"
    },
    {
      "location_id": "F102F756-CF47-11EB-BCDD-C7F8D4EAB27F",
      "brand_name": "Z Energy",
      "location_name": "Z Curletts Rd",
      "latitude": -43.538546751163,
      "longitude": 172.56794544029,
      "address_line1": "Cnr Curletts Road and Blenheim Road",
      "city": "Christchurch",
      "state_province": "Canterbury",
      "postal_code": "8042",
      "country": "NZ"
    },
    {
      "location_id": "F41B3AAC-CF47-11EB-99EA-CB6DB7102277",
      "brand_name": "Z Energy",
      "location_name": "Z Dee St truck stop",
      "latitude": -46.405035754647,
      "longitude": 168.3466900641,
      "address_line1": "206-214 Dee Street",
      "city": "Invercargill",
      "state_province": "Southland",
      "postal_code": "9810",
      "country": "NZ"
    },
    {
      "location_id": "F517C056-CF47-11EB-A89A-8F12F7F22F4A",
      "brand_name": "Z Energy",
      "location_name": "Z Dinsdale",
      "latitude": -37.795076892706,
      "longitude": 175.24740285375,
      "address_line1": "Cnr Whatawhata Road and Tuhikaramea Road, Dinsdale, Hamilton",
      "city": "Hamilton",
      "state_province": "Waikato",
      "postal_code": "3204",
      "country": "NZ"
    },
    {
      "location_id": "F2A9B07C-CF47-11EB-B409-2F5096FD2931",
      "brand_name": "Z Energy",
      "location_name": "Z Dublin St",
      "latitude": -39.9215213,
      "longitude": 175.0495145,
      "address_line1": "14 Dublin Street, Whanganui",
      "city": "Whanganui",
      "state_province": "Manawatu-Wanganui",
      "postal_code": "4500",
      "country": "NZ"
    },
    {
      "location_id": "F5283486-CF47-11EB-AFE0-FD3168A3BB5E",
      "brand_name": "Z Energy",
      "location_name": "Z Eastside",
      "latitude": -37.799232757485,
      "longitude": 175.29671953447,
      "address_line1": "116 Grey Street, Hamilton",
      "city": "Hamilton",
      "state_province": "Waikato",
      "postal_code": "3216",
      "country": "NZ"
    },
    {
      "location_id": "ECDA91B6-CF47-11EB-8A0C-DB3D192ECF1B",
      "brand_name": "Z Energy",
      "location_name": "Z Ellerslie",
      "latitude": -36.898004273589,
      "longitude": 174.82456205883,
      "address_line1": "301 Ellerslie-Panmure Highway, Mt Wellington, Auckland",
      "city": "Auckland",
      "state_province": "Auckland",
      "postal_code": "1060",
      "country": "NZ"
    },
    {
      "location_id": "EF7424DC-CF47-11EB-B990-85873A59CABA",
      "brand_name": "Z Energy",
      "location_name": "Z Fairy Springs truck stop",
      "latitude": -38.123229075457,
      "longitude": 176.23077697406,
      "address_line1": "23 Fairy Springs Road",
      "city": "Rotorua",
      "state_province": "Bay of Plenty",
      "postal_code": "3015",
      "country": "NZ"
    },
    {
      "location_id": "EF83DF3A-CF47-11EB-A531-E77AEA735172",
      "brand_name": "Z Energy",
      "location_name": "Z Fenton St",
      "latitude": -38.1419546,
      "longitude": 176.2532992,
      "address_line1": "Cnr Fenton and Victoria Street, Rotorua",
      "city": "Rotorua",
      "state_province": "Bay of Plenty",
      "postal_code": "3010",
      "country": "NZ"
    },
    {
      "location_id": "F3FD5C8A-CF47-11EB-82EA-07EC3EE33A4F",
      "brand_name": "Z Energy",
      "location_name": "Z Ferguson St",
      "latitude": -40.3588,
      "longitude": 175.616,
      "address_line1": "372 Ferguson Street",
      "city": "Palmerston North",
      "state_province": "Manawatu-Wanganui",
      "postal_code": "4410",
      "country": "NZ"
    },
    {
      "location_id": "F53E15DA-CF47-11EB-8F79-2DA3E3C08379",
      "brand_name": "Z Energy",
      "location_name": "Z Five Cross Roads",
      "latitude": -37.772637832613,
      "longitude": 175.2929333533,
      "address_line1": "243 Peachgrove Road, Enderley, Hamilton",
      "city": "Hamilton",
      "state_province": "Waikato",
      "postal_code": "3214",
      "country": "NZ"
    },
    {
      "location_id": "F550167C-CF47-11EB-A3CA-5FC059A3DE41",
      "brand_name": "Z Energy",
      "location_name": "Z Frankton",
      "latitude": -37.786303733897,
      "longitude": 175.25585714171,
      "address_line1": "Cnr Lincoln and Edgar Streets, Frankton, Hamilton",
      "city": "Hamilton",
      "state_province": "Waikato",
      "postal_code": "3204",
      "country": "NZ"
    },
    {
      "location_id": "F01148FC-CF47-11EB-92EB-F1F18D3F9A09",
      "brand_name": "Z Energy",
      "location_name": "Z Geraldine",
      "latitude": -44.089941980495,
      "longitude": 171.24263804539,
      "address_line1": "Cnr Waihi Terrace & Pine Street",
      "city": "Geraldine",
      "state_province": "Canterbury",
      "postal_code": "7930",
      "country": "NZ"
    },
    {
      "location_id": "F42EDB16-CF47-11EB-82CC-3D16E6D56C32",
      "brand_name": "Z Energy",
      "location_name": "Z Gladstone",
      "latitude": -46.3928792,
      "longitude": 168.3475855,
      "address_line1": "455 Dee Street, Invercargill",
      "city": "Invercargill",
      "state_province": "Southland",
      "postal_code": "9810",
      "country": "NZ"
    },
    {
      "location_id": "EC07F440-CF47-11EB-BEF1-3DBBC103FEDC",
      "brand_name": "Z Energy",
      "location_name": "Z Glen Innes",
      "latitude": -36.877025700347,
      "longitude": 174.8544888171,
      "address_line1": "222-236 Apirana Avenue, Glen Innes, Auckland",
      "city": "Auckland",
      "state_province": "Auckland",
      "postal_code": "1072",
      "country": "NZ"
    },
    {
      "location_id": "EC9D83D4-CF47-11EB-A5FD-931E182CDA60",
      "brand_name": "Z Energy",
      "location_name": "Z Glen Park",
      "latitude": -36.794257855548,
      "longitude": 174.72434187865,
      "address_line1": "241 Glenfield Road, Hillcrest, North Shore",
      "city": "North Shore",
      "state_province": "Auckland",
      "postal_code": "627",
      "country": "NZ"
    },
    {
      "location_id": "ECAF3318-CF47-11EB-AEBD-9F49AE58AEC4",
      "brand_name": "Z Energy",
      "location_name": "Z Green Bay",
      "latitude": -36.931257778838,
      "longitude": 174.67764702032,
      "address_line1": "82 Godley Road, Green Bay, Auckland",
      "city": "Auckland",
      "state_province": "Auckland",
      "postal_code": "604",
      "country": "NZ"
    },
    {
      "location_id": "F187FA32-CF47-11EB-A98A-A5DBC9ED0A1C",
      "brand_name": "Z Energy",
      "location_name": "Z Green Island",
      "latitude": -45.9013428,
      "longitude": 170.4314534,
      "address_line1": "185 Main South Road, Green Island, Dunedin",
      "city": "Dunedin",
      "state_province": "Otago",
      "postal_code": "9018",
      "country": "NZ"
    },
    {
      "location_id": "ECC4D600-CF47-11EB-BF72-63B67562DB4E",
      "brand_name": "Z Energy",
      "location_name": "Z Greenlane",
      "latitude": -36.889905342446,
      "longitude": 174.79583057539,
      "address_line1": "128 Greenlane Road, Greenlane, Auckland",
      "city": "Auckland",
      "state_province": "Auckland",
      "postal_code": "1051",
      "country": "NZ"
    },
    {
      "location_id": "F33DA584-CF47-11EB-953B-E77C6EAEB176",
      "brand_name": "Z Energy",
      "location_name": "Z Greville Rd",
      "latitude": -36.729971936595,
      "longitude": 174.72412089412,
      "address_line1": "43 Greville Road, Albany",
      "city": "Albany",
      "state_province": "Auckland",
      "postal_code": "632",
      "country": "NZ"
    },
    {
      "location_id": "F65B393E-CF47-11EB-8494-89B5AC63586A",
      "brand_name": "Z Energy",
      "location_name": "Z Greymouth truck stop",
      "latitude": -42.449356146151,
      "longitude": 171.21222923205,
      "address_line1": "Whall Street",
      "city": "Greymouth",
      "state_province": "West Coast",
      "postal_code": "7805",
      "country": "NZ"
    },
    {
      "location_id": "F2B1F656-CF47-11EB-BDAF-41A37E7CF869",
      "brand_name": "Z Energy",
      "location_name": "Z Grove Rd truck stop",
      "latitude": -41.503075061282,
      "longitude": 173.96123385662,
      "address_line1": "Corner Grove Road & Budge Street",
      "city": "Blenheim",
      "state_province": "Marlborough",
      "postal_code": "7201",
      "country": "NZ"
    },
    {
      "location_id": "ECCBF052-CF47-11EB-9726-CF8D01937725",
      "brand_name": "Z Energy",
      "location_name": "Z Harris Rd truck stop",
      "latitude": -36.9297442,
      "longitude": 174.8967021,
      "address_line1": "142 Harris Road",
      "city": "South Auckland",
      "state_province": "Auckland",
      "postal_code": "2013",
      "country": "NZ"
    },
    {
      "location_id": "FBEAB62C-CF47-11EB-9F8A-FD8896314725",
      "brand_name": "Z Energy",
      "location_name": "Z Hautapu",
      "latitude": -37.866922673879,
      "longitude": 175.45699624321,
      "address_line1": "167 Victoria Road, Cambridge, New Zealand",
      "city": "New Zealand",
      "state_province": "Waikato",
      "postal_code": "3493",
      "country": "NZ"
    },
    {
      "location_id": "F1DF258C-CF47-11EB-972D-BB653A3E6037",
      "brand_name": "Z Energy",
      "location_name": "Z Havelock Nth",
      "latitude": -39.668925670221,
      "longitude": 176.87637833989,
      "address_line1": "Cnr Havelock Road and Porter Drive, Havelock North",
      "city": "Havelock North",
      "state_province": "Hawkes Bay",
      "postal_code": "4130",
      "country": "NZ"
    },
    {
      "location_id": "F449C746-CF47-11EB-B494-09CFA4FE2E5B",
      "brand_name": "Z Energy",
      "location_name": "Z Hawera truck stop",
      "latitude": -39.593642912126,
      "longitude": 174.28192962115,
      "address_line1": "Corner South Road & Princes Street",
      "city": "Hawera",
      "state_province": "Taranaki",
      "postal_code": "4610",
      "country": "NZ"
    },
    {
      "location_id": "FB9409B2-CF47-11EB-A717-475D39FF3F62",
      "brand_name": "Z Energy",
      "location_name": "Z Henderson Valley",
      "latitude": -36.891808322713,
      "longitude": 174.62315441443,
      "address_line1": "1 Corban Avenue, Henderson, Auckland",
      "city": "Auckland",
      "state_province": "Auckland",
      "postal_code": "612",
      "country": "NZ"
    },
    {
      "location_id": "F1C8DC96-CF47-11EB-BB0B-F95B2EAAED66",
      "brand_name": "Z Energy",
      "location_name": "Z Heretaunga St",
      "latitude": -39.637741966903,
      "longitude": 176.83846665428,
      "address_line1": "Cnr Heretaunga Street West and Southland Road",
      "city": "Hastings",
      "state_province": "Hawkes Bay",
      "postal_code": "4122",
      "country": "NZ"
    },
    {
      "location_id": "EF5AFC82-CF47-11EB-A246-450A4B554978",
      "brand_name": "Z Energy",
      "location_name": "Z Hewletts Rd truck stop",
      "latitude": -37.665923759856,
      "longitude": 176.19989273157,
      "address_line1": "81 Hewletts Road",
      "city": "Mount Maunganui",
      "state_province": "Bay of Plenty",
      "postal_code": "3116",
      "country": "NZ"
    },
    {
      "location_id": "F21D4178-CF47-11EB-896B-5BDB958B7E34",
      "brand_name": "Z Energy",
      "location_name": "Z High Street",
      "latitude": -41.197848632477,
      "longitude": 174.93734760423,
      "address_line1": "834 High Street, Boulcott, Lower Hutt",
      "city": "Lower Hutt",
      "state_province": "Wellington",
      "postal_code": "5011",
      "country": "NZ"
    },
    {
      "location_id": "EEF06DC2-CF47-11EB-BA3B-7B1CCA466A63",
      "brand_name": "Z Energy",
      "location_name": "Z Highbrook truck stop",
      "latitude": -36.937575055241,
      "longitude": 174.87299904325,
      "address_line1": "88 Highbrook Drive",
      "city": "Auckland",
      "state_province": "Auckland",
      "postal_code": "2013",
      "country": "NZ"
    },
    {
      "location_id": "FA96CFCC-CF47-11EB-9554-B10949A1656D",
      "brand_name": "Z Energy",
      "location_name": "Z Hillsborough Rd",
      "latitude": -36.922329244773,
      "longitude": 174.7195891262,
      "address_line1": "610 Hillsborough Road, Mount Roskill, Auckland",
      "city": "Auckland",
      "state_province": "Auckland",
      "postal_code": "1041",
      "country": "NZ"
    },
    {
      "location_id": "ECF2EA86-CF47-11EB-8FF6-E7059A4948B8",
      "brand_name": "Z Energy",
      "location_name": "Z Hunters Corner",
      "latitude": -36.966720886645,
      "longitude": 174.86310487087,
      "address_line1": "72-76 East Tamaki Road, Papatoetoe, South Auckland",
      "city": "South Auckland",
      "state_province": "Auckland",
      "postal_code": "2025",
      "country": "NZ"
    },
    {
      "location_id": "F57EFBFE-CF47-11EB-A084-C74E1D7E63E5",
      "brand_name": "Z Energy",
      "location_name": "Z Huntly",
      "latitude": -37.567483718804,
      "longitude": 175.15840124263,
      "address_line1": "390 Great South Road, Huntly",
      "city": "Huntly",
      "state_province": "Waikato",
      "postal_code": "3700",
      "country": "NZ"
    },
    {
      "location_id": "F26725B8-CF47-11EB-BE62-FF49FEE3C544",
      "brand_name": "Z Energy",
      "location_name": "Z Hutt Rd",
      "latitude": -41.214199887263,
      "longitude": 174.8871914543,
      "address_line1": "453 Hutt Road, Lower Hutt",
      "city": "Lower Hutt",
      "state_province": "Wellington",
      "postal_code": "5010",
      "country": "NZ"
    },
    {
      "location_id": "F4597236-CF47-11EB-82EE-3789DF6AA786",
      "brand_name": "Z Energy",
      "location_name": "Z Inglewood",
      "latitude": -39.1559958377,
      "longitude": 174.20530027331,
      "address_line1": "47 Rata Street, Inglewood",
      "city": "Inglewood",
      "state_province": "Taranaki",
      "postal_code": "4330",
      "country": "NZ"
    },
    {
      "location_id": "F5F308AA-CF47-11EB-AE3A-FF187F24667D",
      "brand_name": "Z Energy",
      "location_name": "Z Johnsonville",
      "latitude": -41.226407627733,
      "longitude": 174.80677965721,
      "address_line1": "136-140 Johnsonville Road, Johnsonville, Wellington",
      "city": "Wellington",
      "state_province": "Wellington",
      "postal_code": "6037",
      "country": "NZ"
    },
    {
      "location_id": "FB841110-CF47-11EB-BF63-FD5BD2CA8148",
      "brand_name": "Z Energy",
      "location_name": "Z Kahikatea Drive",
      "latitude": -37.807729719666,
      "longitude": 175.27101168784,
      "address_line1": "124-126 Kahikatea Drive, Hamilton",
      "city": "Hamilton",
      "state_province": "Waikato",
      "postal_code": "3206",
      "country": "NZ"
    },
    {
      "location_id": "F3493EDA-CF47-11EB-AE31-2B270259FDAC",
      "brand_name": "Z Energy",
      "location_name": "Z Kaikohe",
      "latitude": -35.405910145374,
      "longitude": 173.80351680403,
      "address_line1": "Broadway, Kaikohe",
      "city": "Kaikohe",
      "state_province": "Northland",
      "postal_code": "405",
      "country": "NZ"
    },
    {
      "location_id": "F3554018-CF47-11EB-9803-99CD7474539D",
      "brand_name": "Z Energy",
      "location_name": "Z Kaitaia",
      "latitude": -35.112629643764,
      "longitude": 173.26267140482,
      "address_line1": "141-145 Commerce Street, Kaitaia",
      "city": "Kaitaia",
      "state_province": "Northland",
      "postal_code": "410",
      "country": "NZ"
    },
    {
      "location_id": "F371D9BC-CF47-11EB-9EFC-DF1955F6AC88",
      "brand_name": "Z Energy",
      "location_name": "Z Kamo",
      "latitude": -35.684168917178,
      "longitude": 174.30159878351,
      "address_line1": "382 Kamo Road, Whangarei",
      "city": "Whangarei",
      "state_province": "Northland",
      "postal_code": "112",
      "country": "NZ"
    },
    {
      "location_id": "F5BAB2B6-CF47-11EB-B173-136A87D5E2C1",
      "brand_name": "Z Energy",
      "location_name": "Z Kapiti",
      "latitude": -40.906621514863,
      "longitude": 174.99756859503,
      "address_line1": "Cnr Kapiti Road and Milne Drive, Paraparaumu",
      "city": "Paraparaumu",
      "state_province": "Wellington",
      "postal_code": "5032",
      "country": "NZ"
    },
    {
      "location_id": "F1D3FEA0-CF47-11EB-ADF7-37AFF809C177",
      "brand_name": "Z Energy",
      "location_name": "Z Karamu Rd",
      "latitude": -39.636516348544,
      "longitude": 176.85607329911,
      "address_line1": "927 Karamu Road North",
      "city": "Hastings",
      "state_province": "Hawkes Bay",
      "postal_code": "4122",
      "country": "NZ"
    },
    {
      "location_id": "EF443254-CF47-11EB-A5FD-1FF002015E1F",
      "brand_name": "Z Energy",
      "location_name": "Z Kawerau",
      "latitude": -38.084976423833,
      "longitude": 176.7019254499,
      "address_line1": "6 Islington Street, Kawerau",
      "city": "Kawerau",
      "state_province": "Bay of Plenty",
      "postal_code": "3127",
      "country": "NZ"
    },
    {
      "location_id": "F1F04EA2-CF47-11EB-B409-25870451CDC9",
      "brand_name": "Z Energy",
      "location_name": "Z Kennedy Rd",
      "latitude": -39.49371183865,
      "longitude": 176.91146404665,
      "address_line1": "Cnr Tennyson Street & Station Street",
      "city": "Napier",
      "state_province": "Hawkes Bay",
      "postal_code": "4110",
      "country": "NZ"
    },
    {
      "location_id": "F3802D3C-CF47-11EB-B861-63AEF7E4B031",
      "brand_name": "Z Energy",
      "location_name": "Z Kensington",
      "latitude": -35.708405758143,
      "longitude": 174.32197685271,
      "address_line1": "Cnr Kamo Rd and Nixon Street",
      "city": "Whangarei",
      "state_province": "Northland",
      "postal_code": "112",
      "country": "NZ"
    },
    {
      "location_id": "ED051A80-CF47-11EB-9014-DBBF09AD5E2D",
      "brand_name": "Z Energy",
      "location_name": "Z Kepa Rd",
      "latitude": -36.861333185252,
      "longitude": 174.82312432699,
      "address_line1": "154 Kepa Road, Orakei, Auckland",
      "city": "Auckland",
      "state_province": "Auckland",
      "postal_code": "1071",
      "country": "NZ"
    },
    {
      "location_id": "F600F0DC-CF47-11EB-921B-B56DE0133439",
      "brand_name": "Z Energy",
      "location_name": "Z Kilbirnie",
      "latitude": -41.320004286145,
      "longitude": 174.79437564879,
      "address_line1": "16-22 Coutts Street, Kilbirnie, Wellington",
      "city": "Wellington",
      "state_province": "Wellington",
      "postal_code": "6022",
      "country": "NZ"
    },
    {
      "location_id": "ED17FEA2-CF47-11EB-8338-9D8CEB099A9E",
      "brand_name": "Z Energy",
      "location_name": "Z Kingsway",
      "latitude": -37.061729661724,
      "longitude": 174.94819019041,
      "address_line1": "26 Clevedon Road, Papakura",
      "city": "Papakura",
      "state_province": "Auckland",
      "postal_code": "2110",
      "country": "NZ"
    },
    {
      "location_id": "F05FBB72-CF47-11EB-ADF4-CB4C3F725D7A",
      "brand_name": "Z Energy",
      "location_name": "Z Kumeu",
      "latitude": -36.77423168354,
      "longitude": 174.552273704,
      "address_line1": "134-152 Main Road, State Highway 16",
      "city": "Auckland",
      "state_province": "Auckland",
      "postal_code": "1010",
      "country": "NZ"
    },
    {
      "location_id": "ED298D52-CF47-11EB-8CD5-5B768D984D1A",
      "brand_name": "Z Energy",
      "location_name": "Z Lakeside",
      "latitude": -36.785470233147,
      "longitude": 174.75701565003,
      "address_line1": "Cnr Northcote Road and Taharoto Road",
      "city": "Auckland",
      "state_province": "Auckland",
      "postal_code": "622",
      "country": "NZ"
    },
    {
      "location_id": "F27D3FD8-CF47-11EB-A154-29031A3A0407",
      "brand_name": "Z Energy",
      "location_name": "Z Lakewood Court truck stop",
      "latitude": -36.994563939388,
      "longitude": 174.88612924538,
      "address_line1": "742 Great South Road",
      "city": "Manukau City",
      "state_province": "Auckland",
      "postal_code": "2104",
      "country": "NZ"
    },
    {
      "location_id": "F27649A8-CF47-11EB-B413-41EB3E3A642A",
      "brand_name": "Z Energy",
      "location_name": "Z Levin truck stop",
      "latitude": -40.635014582487,
      "longitude": 175.27127899427,
      "address_line1": "State Highway 1",
      "city": "Levin",
      "state_province": "Manawatu-Wanganui",
      "postal_code": "5510",
      "country": "NZ"
    },
    {
      "location_id": "ED3D16E2-CF47-11EB-BA1D-07D6C305244F",
      "brand_name": "Z Energy",
      "location_name": "Z Lincoln Rd",
      "latitude": -36.858759310249,
      "longitude": 174.62943890508,
      "address_line1": "198 Lincoln Road, Henderson",
      "city": "Henderson",
      "state_province": "Auckland",
      "postal_code": "610",
      "country": "NZ"
    },
    {
      "location_id": "F121CA96-CF47-11EB-A7F2-41466D88F4BC",
      "brand_name": "Z Energy",
      "location_name": "Z Linwood",
      "latitude": -43.532582220643,
      "longitude": 172.67133479216,
      "address_line1": "Cnr Linwood Avenue and Cashel Street, Christchurch",
      "city": "Christchurch",
      "state_province": "Canterbury",
      "postal_code": "8011",
      "country": "NZ"
    },
    {
      "location_id": "FB65B760-CF47-11EB-854F-0B78338DE25B",
      "brand_name": "Z Energy",
      "location_name": "Z London St",
      "latitude": -39.926659811014,
      "longitude": 175.03543211394,
      "address_line1": "171 London St & Cnr Glasgow St",
      "city": "Whanganui",
      "state_province": "Manawatu-Wanganui",
      "postal_code": "4500",
      "country": "NZ"
    },
    {
      "location_id": "ED4EF54C-CF47-11EB-8FC4-F1531BD0FCA4",
      "brand_name": "Z Energy",
      "location_name": "Z Mairangi Bay",
      "latitude": -36.738954434252,
      "longitude": 174.75372588017,
      "address_line1": "413-417 Beach Road, Mairangi Bay",
      "city": "Mairangi Bay",
      "state_province": "Auckland",
      "postal_code": "630",
      "country": "NZ"
    },
    {
      "location_id": "F612F0CA-CF47-11EB-A964-25997A8E8141",
      "brand_name": "Z Energy",
      "location_name": "Z Mana",
      "latitude": -41.09145798663,
      "longitude": 174.86730101094,
      "address_line1": "143 Mana Esplanade, Mana, Wellington",
      "city": "Wellington",
      "state_province": "Wellington",
      "postal_code": "5026",
      "country": "NZ"
    },
    {
      "location_id": "EF16EBAA-CF47-11EB-BF69-93BD022ED24C",
      "brand_name": "Z Energy",
      "location_name": "Z Manly",
      "latitude": -36.631897731354,
      "longitude": 174.76355163375,
      "address_line1": "934 Whangaparaoa Road, Whangaparaoa",
      "city": "Whangaparaoa",
      "state_province": "Auckland",
      "postal_code": "930",
      "country": "NZ"
    },
    {
      "location_id": "ED6075A6-CF47-11EB-9C3C-07E9FAADBCBE",
      "brand_name": "Z Energy",
      "location_name": "Z Manurewa",
      "latitude": -37.023584064773,
      "longitude": 174.89947115194,
      "address_line1": "1 Alfriston Road, Manurewa, South Auckland",
      "city": "South Auckland",
      "state_province": "Auckland",
      "postal_code": "2102",
      "country": "NZ"
    },
    {
      "location_id": "F2881494-CF47-11EB-8B4D-0707549EF717",
      "brand_name": "Z Energy",
      "location_name": "Z Marton",
      "latitude": -40.065304973207,
      "longitude": 175.37905013914,
      "address_line1": "166 Broadway, Marton",
      "city": "Marton",
      "state_province": "Manawatu-Wanganui",
      "postal_code": "4710",
      "country": "NZ"
    },
    {
      "location_id": "F5AA33D2-CF47-11EB-B212-315405A05568",
      "brand_name": "Z Energy",
      "location_name": "Z Masterton truck stop",
      "latitude": -40.968955520929,
      "longitude": 175.6010300637,
      "address_line1": "State Highway 2",
      "city": "Masterton",
      "state_province": "Wellington",
      "postal_code": "5810",
      "country": "NZ"
    },
    {
      "location_id": "F47C4068-CF47-11EB-BB43-851CF78D868C",
      "brand_name": "Z Energy",
      "location_name": "Z Matamata",
      "latitude": -37.808034954032,
      "longitude": 175.77068512636,
      "address_line1": "Cnr Waharoa Road and Peria Road, Matamata",
      "city": "Matamata",
      "state_province": "Waikato",
      "postal_code": "3400",
      "country": "NZ"
    },
    {
      "location_id": "F3266B26-CF47-11EB-8767-B92C2BD50C15",
      "brand_name": "Z Energy",
      "location_name": "Z Merrilands",
      "latitude": -39.067015179736,
      "longitude": 174.10277284612,
      "address_line1": "202 Mangorei Road, New Plymouth",
      "city": "New Plymouth",
      "state_province": "Taranaki",
      "postal_code": "4312",
      "country": "NZ"
    },
    {
      "location_id": "ED7338B2-CF47-11EB-8299-7F023AF6C914",
      "brand_name": "Z Energy",
      "location_name": "Z Milford",
      "latitude": -36.763746760691,
      "longitude": 174.75635541596,
      "address_line1": "151 East Coast Road, Milford, Auckland",
      "city": "Auckland",
      "state_province": "Auckland",
      "postal_code": "620",
      "country": "NZ"
    },
    {
      "location_id": "F6245DE2-CF47-11EB-8261-EF66978C645E",
      "brand_name": "Z Energy",
      "location_name": "Z Miramar",
      "latitude": -41.315110101284,
      "longitude": 174.81390325557,
      "address_line1": "27 Miramar Avenue, Miramar, Wellington",
      "city": "Wellington",
      "state_province": "Wellington",
      "postal_code": "6022",
      "country": "NZ"
    },
    {
      "location_id": "F1339960-CF47-11EB-B7B1-F126D2A8722A",
      "brand_name": "Z Energy",
      "location_name": "Z Moorhouse",
      "latitude": -43.540288822996,
      "longitude": 172.62217128553,
      "address_line1": "40 Moorhouse Avenue, Christchurch",
      "city": "Christchurch",
      "state_province": "Canterbury",
      "postal_code": "8011",
      "country": "NZ"
    },
    {
      "location_id": "F48A22E6-CF47-11EB-A725-51B312112E90",
      "brand_name": "Z Energy",
      "location_name": "Z Morrinsville",
      "latitude": -37.658732117332,
      "longitude": 175.52662785527,
      "address_line1": "202-210 Thames Street, Morrinsville",
      "city": "Morrinsville",
      "state_province": "Waikato",
      "postal_code": "3300",
      "country": "NZ"
    },
    {
      "location_id": "F196B892-CF47-11EB-8345-C3A06C8C19DF",
      "brand_name": "Z Energy",
      "location_name": "Z Mosgiel",
      "latitude": -45.886150543103,
      "longitude": 170.35405038303,
      "address_line1": "Cnr Gladstone Road and Quarry Road, Mosgiel",
      "city": "Mosgiel",
      "state_province": "Otago",
      "postal_code": "9024",
      "country": "NZ"
    },
    {
      "location_id": "ED818DFE-CF47-11EB-8FA4-2DAA5053BF85",
      "brand_name": "Z Energy",
      "location_name": "Z Mt Albert",
      "latitude": -36.880655146229,
      "longitude": 174.72465210161,
      "address_line1": "770-774 New North Road, Mount Albert, Auckland",
      "city": "Auckland",
      "state_province": "Auckland",
      "postal_code": "1025",
      "country": "NZ"
    },
    {
      "location_id": "F6338D94-CF47-11EB-904C-C93C1B82A646",
      "brand_name": "Z Energy",
      "location_name": "Z Mungavin Ave",
      "latitude": -41.13808395055,
      "longitude": 174.84780015097,
      "address_line1": "1-5 Mungavin Avenue, Porirua East, Wellington",
      "city": "Wellington",
      "state_province": "Wellington",
      "postal_code": "5024",
      "country": "NZ"
    },
    {
      "location_id": "EE05D23A-CF47-11EB-9488-A1E37F518F10",
      "brand_name": "Z Energy",
      "location_name": "Z New Lynn",
      "latitude": -36.902676243755,
      "longitude": 174.68114143319,
      "address_line1": "62 Rata Street",
      "city": "West Auckland",
      "state_province": "Auckland",
      "postal_code": "600",
      "country": "NZ"
    },
    {
      "location_id": "F4957858-CF47-11EB-AB98-6BB521F295B6",
      "brand_name": "Z Energy",
      "location_name": "Z Ngaruawahia",
      "latitude": -37.66826606153,
      "longitude": 175.14954849279,
      "address_line1": "106 Great South Road, Ngaruawahia",
      "city": "Ngaruawahia",
      "state_province": "Waikato",
      "postal_code": "3720",
      "country": "NZ"
    },
    {
      "location_id": "F49BDC52-CF47-11EB-94C2-17DBC7D730C5",
      "brand_name": "Z Energy",
      "location_name": "Z Ngatea truck stop",
      "latitude": -37.27635184644,
      "longitude": 175.49104857494,
      "address_line1": "77 Orchard Road",
      "city": "Ngatea",
      "state_province": "Waikato",
      "postal_code": "3503",
      "country": "NZ"
    },
    {
      "location_id": "FB5715A2-CF47-11EB-9CD7-B330F887294E",
      "brand_name": "Z Energy",
      "location_name": "Z Northcote",
      "latitude": -36.810181341976,
      "longitude": 174.73784835376,
      "address_line1": "119 Onewa Road",
      "city": "Auckland",
      "state_province": "Auckland",
      "postal_code": "627",
      "country": "NZ"
    },
    {
      "location_id": "ED980480-CF47-11EB-805A-25BA82FA78A7",
      "brand_name": "Z Energy",
      "location_name": "Z Northcross",
      "latitude": -36.709890878366,
      "longitude": 174.72824084029,
      "address_line1": "847-849 East Coast Road",
      "city": "Auckland",
      "state_province": "Auckland",
      "postal_code": "630",
      "country": "NZ"
    },
    {
      "location_id": "F38F609A-CF47-11EB-9FB9-FDA72D4F164D",
      "brand_name": "Z Energy",
      "location_name": "Z Oamaru truck stop",
      "latitude": -45.065331471564,
      "longitude": 170.99694233633,
      "address_line1": "Pukeuri-Oamaru Road",
      "city": "Oamaru",
      "state_province": "Otago",
      "postal_code": "9400",
      "country": "NZ"
    },
    {
      "location_id": "EDBD2184-CF47-11EB-90E1-E5B94FEA50CB",
      "brand_name": "Z Energy",
      "location_name": "Z Ormiston Rd",
      "latitude": -36.961248621513,
      "longitude": 174.8907490167,
      "address_line1": "8 Ormiston Road, Flat Bush, South Auckland",
      "city": "South Auckland",
      "state_province": "Auckland",
      "postal_code": "2016",
      "country": "NZ"
    },
    {
      "location_id": "FB351E52-CF47-11EB-BEBD-17BD31E12AC7",
      "brand_name": "Z Energy",
      "location_name": "Z Otahuhu",
      "latitude": -36.940911237973,
      "longitude": 174.84323198963,
      "address_line1": "19 Princes Street, Otahuhu, Auckland",
      "city": "Auckland",
      "state_province": "Auckland",
      "postal_code": "1062",
      "country": "NZ"
    },
    {
      "location_id": "EDD2D75E-CF47-11EB-9A62-ED965D679E4E",
      "brand_name": "Z Energy",
      "location_name": "Z Pakuranga",
      "latitude": -36.900131877053,
      "longitude": 174.89946556916,
      "address_line1": "470 Pakuranga Highway, Pakuranga, Auckland",
      "city": "Auckland",
      "state_province": "Auckland",
      "postal_code": "2012",
      "country": "NZ"
    },
    {
      "location_id": "EF6CC840-CF47-11EB-8FC1-058301631478",
      "brand_name": "Z Energy",
      "location_name": "Z Palm Beach",
      "latitude": -37.6991184,
      "longitude": 176.2843959,
      "address_line1": "16 Domain Road",
      "city": "Papamoa Beach",
      "state_province": "Bay of Plenty",
      "postal_code": "3118",
      "country": "NZ"
    },
    {
      "location_id": "F3CE04D0-CF47-11EB-99B4-8512F7B3FCED",
      "brand_name": "Z Energy",
      "location_name": "Z Palmerston",
      "latitude": -45.4854342,
      "longitude": 170.7145887,
      "address_line1": "112 Ronaldsay Street",
      "city": "Palmerston",
      "state_province": "Otago",
      "postal_code": "9430",
      "country": "NZ"
    },
    {
      "location_id": "EC7ED36C-CF47-11EB-8E2E-DFF046C55762",
      "brand_name": "Z Energy",
      "location_name": "Z Panmure",
      "latitude": -36.896214664878,
      "longitude": 174.84074381459,
      "address_line1": "434 Ellerslie Panmure Highway, Mount Wellington, Auckland",
      "city": "Auckland",
      "state_province": "Auckland",
      "postal_code": "1060",
      "country": "NZ"
    },
    {
      "location_id": "F3C1EE20-CF47-11EB-8DD7-93AFD0971009",
      "brand_name": "Z Energy",
      "location_name": "Z Papakura North",
      "latitude": -37.0506821,
      "longitude": 174.9297084,
      "address_line1": "254 Great South Road, Takanini, Auckland",
      "city": "Auckland",
      "state_province": "Auckland",
      "postal_code": "2110",
      "country": "NZ"
    },
    {
      "location_id": "F230407A-CF47-11EB-9B1D-71E5253693E6",
      "brand_name": "Z Energy",
      "location_name": "Z Petone truck stop",
      "latitude": -41.222920246579,
      "longitude": 174.86857868152,
      "address_line1": "Corner Jackson Street & Hutt Road",
      "city": "Wellington",
      "state_province": "Wellington",
      "postal_code": "5012",
      "country": "NZ"
    },
    {
      "location_id": "F2D7504A-CF47-11EB-81A6-7388B615A727",
      "brand_name": "Z Energy",
      "location_name": "Z Picton",
      "latitude": -41.292085194268,
      "longitude": 174.00649767014,
      "address_line1": "101 High Street, Picton",
      "city": "Picton",
      "state_province": "Marlborough",
      "postal_code": "7220",
      "country": "NZ"
    },
    {
      "location_id": "F8EFC9C6-CF47-11EB-B91F-2BAE316C3434",
      "brand_name": "Z Energy",
      "location_name": "Z Pioneer Hwy",
      "latitude": -40.364540315215,
      "longitude": 175.59345974063,
      "address_line1": "676 Pioneer Highway",
      "city": "Palmerston North",
      "state_province": "Manawatu-Wanganui",
      "postal_code": "4412",
      "country": "NZ"
    },
    {
      "location_id": "EDE36902-CF47-11EB-9149-FDA8EF41A810",
      "brand_name": "Z Energy",
      "location_name": "Z Point Chev",
      "latitude": -36.869229197411,
      "longitude": 174.7127826651,
      "address_line1": "1125-1143 Great North Road",
      "city": "Auckland",
      "state_province": "Auckland",
      "postal_code": "1022",
      "country": "NZ"
    },
    {
      "location_id": "EED46D16-CF47-11EB-9384-0B58E3BA8F6E",
      "brand_name": "Z Energy",
      "location_name": "Z Ponsonby",
      "latitude": -36.858601751171,
      "longitude": 174.74756199461,
      "address_line1": "5-9 Williamson Avenue",
      "city": "Auckland",
      "state_province": "Auckland",
      "postal_code": "1021",
      "country": "NZ"
    },
    {
      "location_id": "FB158790-CF47-11EB-B42D-B52E840ACA38",
      "brand_name": "Z Energy",
      "location_name": "Z Porowini",
      "latitude": -35.73221684702,
      "longitude": 174.32242074789,
      "address_line1": "47 Porowini Avenue, Whangarei",
      "city": "Whangarei",
      "state_province": "Northland",
      "postal_code": "110",
      "country": "NZ"
    },
    {
      "location_id": "F925E740-CF47-11EB-9AE0-ED56D96387AE",
      "brand_name": "Z Energy",
      "location_name": "Z Pukekohe",
      "latitude": -37.1999778,
      "longitude": 174.9082097,
      "address_line1": "11 Stadium Drive",
      "city": "Auckland",
      "state_province": "Auckland",
      "postal_code": "2120",
      "country": "NZ"
    },
    {
      "location_id": "F56F5CC6-CF47-11EB-966F-555DF334B9E0",
      "brand_name": "Z Energy",
      "location_name": "Z Pukete",
      "latitude": -37.752307121568,
      "longitude": 175.24101297491,
      "address_line1": "Cnr Pukete and Te Rapa Roads, Te Rapa, Hamilton",
      "city": "Hamilton",
      "state_province": "Waikato",
      "postal_code": "3200",
      "country": "NZ"
    },
    {
      "location_id": "F4B5AAF6-CF47-11EB-92FB-35FB888A1620",
      "brand_name": "Z Energy",
      "location_name": "Z Putaruru",
      "latitude": -38.047629367719,
      "longitude": 175.78029548112,
      "address_line1": "68-70 Tirau Street, Putaruru",
      "city": "Putaruru",
      "state_province": "Waikato",
      "postal_code": "3411",
      "country": "NZ"
    },
    {
      "location_id": "EDF50F2C-CF47-11EB-B503-03FD777C641D",
      "brand_name": "Z Energy",
      "location_name": "Z Quay St",
      "latitude": -36.844761320716,
      "longitude": 174.77358307099,
      "address_line1": "27 Quay Street, Auckland",
      "city": "Auckland",
      "state_province": "Auckland",
      "postal_code": "1010",
      "country": "NZ"
    },
    {
      "location_id": "F3E35178-CF47-11EB-B7CC-0DE1DFF82D8D",
      "brand_name": "Z Energy",
      "location_name": "Z Queenstown",
      "latitude": -45.017344255188,
      "longitude": 168.71611776372,
      "address_line1": "846 Frankton Road, Queenstown",
      "city": "Queenstown",
      "state_province": "Otago",
      "postal_code": "9300",
      "country": "NZ"
    },
    {
      "location_id": "F2BC7676-CF47-11EB-B7A7-BF2B7DCAA37E",
      "brand_name": "Z Energy",
      "location_name": "Z Redwood",
      "latitude": -41.52973829101,
      "longitude": 173.958177022,
      "address_line1": "225 Scott Street, Blenheim",
      "city": "Blenheim",
      "state_province": "Marlborough",
      "postal_code": "7201",
      "country": "NZ"
    },
    {
      "location_id": "F9FC07DA-CF47-11EB-8807-0B6EE8AE849E",
      "brand_name": "Z Energy",
      "location_name": "Z Roscommon Rd truck stop",
      "latitude": -37.003477824027,
      "longitude": 174.85331087275,
      "address_line1": "147 Roscommon Road",
      "city": "Auckland",
      "state_province": "Auckland",
      "postal_code": "2104",
      "country": "NZ"
    },
    {
      "location_id": "F002630A-CF47-11EB-88B6-CD1EAC5BC39F",
      "brand_name": "Z Energy",
      "location_name": "Z Rotokauri",
      "latitude": -37.75426442333,
      "longitude": 175.23063758102,
      "address_line1": "Cnr Wairere Drive & Arthur Porter Drive",
      "city": "Hamilton",
      "state_province": "Waikato",
      "postal_code": "3288",
      "country": "NZ"
    },
    {
      "location_id": "EE38161E-CF47-11EB-ACF6-D1E859BBAD89",
      "brand_name": "Z Energy",
      "location_name": "Z Royal Oak",
      "latitude": -36.911204607667,
      "longitude": 174.77360153548,
      "address_line1": "700 Mount Albert Road, Royal Oak, Auckland",
      "city": "Auckland",
      "state_province": "Auckland",
      "postal_code": "1023",
      "country": "NZ"
    },
    {
      "location_id": "F2FE4F4C-CF47-11EB-B36C-D32FED028155",
      "brand_name": "Z Energy",
      "location_name": "Z Rutherford",
      "latitude": -41.274660167167,
      "longitude": 173.28063702484,
      "address_line1": "106 Rutherford Street, Nelson",
      "city": "Nelson",
      "state_province": "Nelson",
      "postal_code": "7010",
      "country": "NZ"
    },
    {
      "location_id": "F28F7086-CF47-11EB-937F-0DA4B38A4DD6",
      "brand_name": "Z Energy",
      "location_name": "Z Sanson truck stop",
      "latitude": -40.219974603443,
      "longitude": 175.42327542731,
      "address_line1": "State Highway 1",
      "city": "Sanson",
      "state_province": "Manawatu-Wanganui",
      "postal_code": "4817",
      "country": "NZ"
    },
    {
      "location_id": "FBBFA4F0-CF47-11EB-ADD3-7B21DCE0C286",
      "brand_name": "Z Energy",
      "location_name": "Z Sawyers Arms",
      "latitude": -43.470927111851,
      "longitude": 172.56990519936,
      "address_line1": "530 Sawyers Arms Road",
      "city": "Christchurch",
      "state_province": "Canterbury",
      "postal_code": "8051",
      "country": "NZ"
    },
    {
      "location_id": "F22923BC-CF47-11EB-8DC8-552FC5827AF6",
      "brand_name": "Z Energy",
      "location_name": "Z Seaview truck stop",
      "latitude": -41.242892211462,
      "longitude": 174.90855922526,
      "address_line1": "58 Seaview Road",
      "city": "Wellington",
      "state_province": "Wellington",
      "postal_code": "5010",
      "country": "NZ"
    },
    {
      "location_id": "F161EEBE-CF47-11EB-9A1B-CD40D8873517",
      "brand_name": "Z Energy",
      "location_name": "Z Shirley",
      "latitude": -43.507501,
      "longitude": 172.6624482,
      "address_line1": "7 Marshland Road, Shirley, Christchurch",
      "city": "Christchurch",
      "state_province": "Canterbury",
      "postal_code": "8061",
      "country": "NZ"
    },
    {
      "location_id": "FBFC1098-CF47-11EB-ACB1-ADE10AA3FEFC",
      "brand_name": "Z Energy",
      "location_name": "Z Silverdale",
      "latitude": -36.623331262513,
      "longitude": 174.66821688275,
      "address_line1": "5 Hibiscus Coast Highway",
      "city": "Auckland",
      "state_province": "Auckland",
      "postal_code": "993",
      "country": "NZ"
    },
    {
      "location_id": "F2C9CEAC-CF47-11EB-B3C3-7DE446411FE1",
      "brand_name": "Z Energy",
      "location_name": "Z Springlands",
      "latitude": -41.509589644256,
      "longitude": 173.93025996827,
      "address_line1": "165 Middle Renwick Road, Blenheim",
      "city": "Blenheim",
      "state_province": "Marlborough",
      "postal_code": "7201",
      "country": "NZ"
    },
    {
      "location_id": "FB457DC4-CF47-11EB-AEC4-9B2DE083BA04",
      "brand_name": "Z Energy",
      "location_name": "Z Stadium",
      "latitude": -37.78054487,
      "longitude": 175.27122218681,
      "address_line1": "26 Mill Street, Hamilton",
      "city": "Hamilton",
      "state_province": "Waikato",
      "postal_code": "8330",
      "country": "NZ"
    },
    {
      "location_id": "F30B0AE8-CF47-11EB-B6C4-8B6C45C5E9D4",
      "brand_name": "Z Energy",
      "location_name": "Z Stoke",
      "latitude": -41.3190739,
      "longitude": 173.2251081,
      "address_line1": "666 Main Road, Stoke, Nelson",
      "city": "Nelson",
      "state_province": "Nelson",
      "postal_code": "7011",
      "country": "NZ"
    },
    {
      "location_id": "F44280D0-CF47-11EB-8E7C-FB6EA5F62579",
      "brand_name": "Z Energy",
      "location_name": "Z Stratford",
      "latitude": -39.337498496837,
      "longitude": 174.28365992426,
      "address_line1": "Cnr Broadway and Regan Street, Stratford",
      "city": "Stratford",
      "state_province": "Taranaki",
      "postal_code": "4332",
      "country": "NZ"
    },
    {
      "location_id": "EE5A600C-CF47-11EB-A3D2-A996373A1E89",
      "brand_name": "Z Energy",
      "location_name": "Z Sunnybrae",
      "latitude": -36.792198938543,
      "longitude": 174.74722628654,
      "address_line1": "37 Northcote Road, Takapuna",
      "city": "Takapuna",
      "state_province": "Auckland",
      "postal_code": "627",
      "country": "NZ"
    },
    {
      "location_id": "EE23E860-CF47-11EB-B14B-F1D99EC5EFDE",
      "brand_name": "Z Energy",
      "location_name": "Z Sylvia Park truck stop",
      "latitude": -36.923852011933,
      "longitude": 174.83626886315,
      "address_line1": "Sylvia Park Road",
      "city": "Auckland",
      "state_province": "Auckland",
      "postal_code": "1060",
      "country": "NZ"
    },
    {
      "location_id": "F361E07A-CF47-11EB-8B10-E962EA1C1C7B",
      "brand_name": "Z Energy",
      "location_name": "Z Taipa",
      "latitude": -34.996045297372,
      "longitude": 173.46575662487,
      "address_line1": "570 State Highway 10, Taipa",
      "city": "Taipa",
      "state_province": "Northland",
      "postal_code": "420",
      "country": "NZ"
    },
    {
      "location_id": "EE6ABCA4-CF47-11EB-9B72-B3D89BEAB706",
      "brand_name": "Z Energy",
      "location_name": "Z Takanini",
      "latitude": -37.043342159119,
      "longitude": 174.92010540477,
      "address_line1": "166 Great South Road, Papakura",
      "city": "Papakura",
      "state_province": "Auckland",
      "postal_code": "2110",
      "country": "NZ"
    },
    {
      "location_id": "F1FBB08A-CF47-11EB-9FDF-9F76A1AF3351",
      "brand_name": "Z Energy",
      "location_name": "Z Tamatea",
      "latitude": -39.5094576,
      "longitude": 176.8685886,
      "address_line1": "6 Durham Avenue, Tamatea",
      "city": "Tamatea",
      "state_province": "Hawkes Bay",
      "postal_code": "4112",
      "country": "NZ"
    },
    {
      "location_id": "F208E3D6-CF47-11EB-B89D-777DBF07C2B8",
      "brand_name": "Z Energy",
      "location_name": "Z Taradale",
      "latitude": -39.535229043837,
      "longitude": 176.84950774042,
      "address_line1": "21 Lee Road",
      "city": "Napier",
      "state_province": "Hawkes Bay",
      "postal_code": "4112",
      "country": "NZ"
    },
    {
      "location_id": "F644B29A-CF47-11EB-8C0B-7332D237C2EB",
      "brand_name": "Z Energy",
      "location_name": "Z Taranaki St",
      "latitude": -41.297062077113,
      "longitude": 174.77650972164,
      "address_line1": "155 Taranaki Street, Wellington",
      "city": "Wellington",
      "state_province": "Wellington",
      "postal_code": "6011",
      "country": "NZ"
    },
    {
      "location_id": "FB057A80-CF47-11EB-B0CF-DF7C23423779",
      "brand_name": "Z Energy",
      "location_name": "Z Tauhara",
      "latitude": -38.704470580906,
      "longitude": 176.10897376674,
      "address_line1": "200 Napier-Taupo Rd, Hilltop, Taupo",
      "city": "Taupo",
      "state_province": "Waikato",
      "postal_code": "3379",
      "country": "NZ"
    },
    {
      "location_id": "F4C1E1A4-CF47-11EB-8B0B-C31DED884C2C",
      "brand_name": "Z Energy",
      "location_name": "Z Taup",
      "latitude": -38.689369246608,
      "longitude": 176.07402593575,
      "address_line1": "Cnr Titiraupenga Street and Tuwharetoa Street, Taup",
      "city": "Taup",
      "state_province": "Waikato",
      "postal_code": "3330",
      "country": "NZ"
    },
    {
      "location_id": "F65385EA-CF47-11EB-9807-BF86768CF081",
      "brand_name": "Z Energy",
      "location_name": "Z Tawa",
      "latitude": -41.183982346513,
      "longitude": 174.82566556144,
      "address_line1": "16-18 Main Road, Tawa, Wellington",
      "city": "Wellington",
      "state_province": "Wellington",
      "postal_code": "5028",
      "country": "NZ"
    },
    {
      "location_id": "EE813A24-CF47-11EB-A0BF-150608797338",
      "brand_name": "Z Energy",
      "location_name": "Z Te Atatu",
      "latitude": -36.852102942605,
      "longitude": 174.65073325684,
      "address_line1": "402 Te Atatu North Road, Te Atatu North, West Auckland",
      "city": "West Auckland",
      "state_province": "Auckland",
      "postal_code": "610",
      "country": "NZ"
    },
    {
      "location_id": "F4DAA0FE-CF47-11EB-AE10-752896725886",
      "brand_name": "Z Energy",
      "location_name": "Z Te Awamutu",
      "latitude": -38.014863425339,
      "longitude": 175.32469856179,
      "address_line1": "601 Sloane Street, Te Awamutu",
      "city": "Te Awamutu",
      "state_province": "Waikato",
      "postal_code": "3800",
      "country": "NZ"
    },
    {
      "location_id": "EDADA844-CF47-11EB-9AF8-BDEF60A2DD3E",
      "brand_name": "Z Energy",
      "location_name": "Z Te Irirangi Dr",
      "latitude": -36.977409069314,
      "longitude": 174.89756736253,
      "address_line1": "136 Dawson Road, Otara, South Auckland",
      "city": "South Auckland",
      "state_province": "Auckland",
      "postal_code": "2023",
      "country": "NZ"
    },
    {
      "location_id": "F4E18F0E-CF47-11EB-857A-7145F75C814C",
      "brand_name": "Z Energy",
      "location_name": "Z Te Kuiti truck stop",
      "latitude": -38.324097088793,
      "longitude": 175.15291716804,
      "address_line1": "Te Kumi Road",
      "city": "Te Kuiti",
      "state_province": "Waikato",
      "postal_code": "3910",
      "country": "NZ"
    },
    {
      "location_id": "EFC13704-CF47-11EB-8F96-750A8628DA13",
      "brand_name": "Z Energy",
      "location_name": "Z Te Puke",
      "latitude": -37.785210754463,
      "longitude": 176.33073287573,
      "address_line1": "Cnr Jellicoe Street and King Street, Te Puke",
      "city": "Te Puke",
      "state_province": "Bay of Plenty",
      "postal_code": "3119",
      "country": "NZ"
    },
    {
      "location_id": "F169A942-CF47-11EB-BAE0-55D5838E3723",
      "brand_name": "Z Energy",
      "location_name": "Z Templeton truck stop",
      "latitude": -43.549341712239,
      "longitude": 172.48814149386,
      "address_line1": "720 Main South Road",
      "city": "Templeton",
      "state_province": "Canterbury",
      "postal_code": "8042",
      "country": "NZ"
    },
    {
      "location_id": "FB75083C-CF47-11EB-BD07-1FD71E3D82CD",
      "brand_name": "Z Energy",
      "location_name": "Z Terrace End",
      "latitude": -40.348454,
      "longitude": 175.6292018,
      "address_line1": "768 Main Street",
      "city": "Palmerston North",
      "state_province": "Manawatu-Wanganui",
      "postal_code": "4414",
      "country": "NZ"
    },
    {
      "location_id": "EE90C7E6-CF47-11EB-8428-2D89E58AA12E",
      "brand_name": "Z Energy",
      "location_name": "Z Ti Rakau Dr",
      "latitude": -36.926219415393,
      "longitude": 174.89520822982,
      "address_line1": "284 Ti Rakau Drive, East Tamaki, South Auckland",
      "city": "South Auckland",
      "state_province": "Auckland",
      "postal_code": "2013",
      "country": "NZ"
    },
    {
      "location_id": "EEA08532-CF47-11EB-99B3-09D5C6C99DEA",
      "brand_name": "Z Energy",
      "location_name": "Z Tom Pearce Dr",
      "latitude": -36.999301647417,
      "longitude": 174.79725640172,
      "address_line1": "Tom Pearce Drive, Auckland International Airport",
      "city": "Auckland International Airport",
      "state_province": "Auckland",
      "postal_code": "2022",
      "country": "NZ"
    },
    {
      "location_id": "F46AC518-CF47-11EB-B421-5DE26EDDA37A",
      "brand_name": "Z Energy",
      "location_name": "Z Trentham",
      "latitude": -41.137157909852,
      "longitude": 175.03248170314,
      "address_line1": "430 Fergusson Drive, Trentham, Upper Hutt",
      "city": "Upper Hutt",
      "state_province": "Wellington",
      "postal_code": "5018",
      "country": "NZ"
    },
    {
      "location_id": "EEB0BE5C-CF47-11EB-B71D-0B327B1DE66B",
      "brand_name": "Z Energy",
      "location_name": "Z Triangle",
      "latitude": -36.894928744762,
      "longitude": 174.80033040189,
      "address_line1": "574 Great South Road, Ellerslie, Auckland",
      "city": "Auckland",
      "state_province": "Auckland",
      "postal_code": "1051",
      "country": "NZ"
    },
    {
      "location_id": "F4EBB0E2-CF47-11EB-ADD0-E14C716C3B2E",
      "brand_name": "Z Energy",
      "location_name": "Z Turangi truck stop",
      "latitude": -38.998361196139,
      "longitude": 175.80313356931,
      "address_line1": "Atirau Road",
      "city": "Turangi",
      "state_province": "Waikato",
      "postal_code": "3334",
      "country": "NZ"
    },
    {
      "location_id": "F1A77614-CF47-11EB-B85B-5BD51BB28725",
      "brand_name": "Z Energy",
      "location_name": "Z Valley",
      "latitude": -45.872567127396,
      "longitude": 170.47225207564,
      "address_line1": "248 Kaikorai Valley Road, Kaikorai, Dunedin",
      "city": "Dunedin",
      "state_province": "Otago",
      "postal_code": "9011",
      "country": "NZ"
    },
    {
      "location_id": "F256BAB6-CF47-11EB-BEB8-F5F776B8CCBD",
      "brand_name": "Z Energy",
      "location_name": "Z VIC Corner",
      "latitude": -41.203931043486,
      "longitude": 174.91421448017,
      "address_line1": "545-555 High Street, Lower Hutt",
      "city": "Lower Hutt",
      "state_province": "Wellington",
      "postal_code": "5010",
      "country": "NZ"
    },
    {
      "location_id": "FAF5782E-CF47-11EB-B782-477D291B2AE1",
      "brand_name": "Z Energy",
      "location_name": "Z Vivian St",
      "latitude": -41.294303054331,
      "longitude": 174.77451739702,
      "address_line1": "174 Vivian St, Wellington",
      "city": "Wellington",
      "state_province": "Wellington",
      "postal_code": "6011",
      "country": "NZ"
    },
    {
      "location_id": "FBCE9604-CF47-11EB-9EB0-D76CD84608CE",
      "brand_name": "Z Energy",
      "location_name": "Z Waikaraka",
      "latitude": -36.926653315157,
      "longitude": 174.79458491956,
      "address_line1": "167-171 Neilson Street, Onehunga, Auckland",
      "city": "Auckland",
      "state_province": "Auckland",
      "postal_code": "1061",
      "country": "NZ"
    },
    {
      "location_id": "F06DB060-CF47-11EB-9934-B5661A538645",
      "brand_name": "Z Energy",
      "location_name": "Z Waikuku",
      "latitude": -43.294957879773,
      "longitude": 172.68423842909,
      "address_line1": "1413 Main North Road, Waikuku",
      "city": "Waikuku",
      "state_province": "Canterbury",
      "postal_code": "7473",
      "country": "NZ"
    },
    {
      "location_id": "FC0CBDC6-CF47-11EB-9C9A-0D81B1A33C04",
      "brand_name": "Z Energy",
      "location_name": "Z Waikumete",
      "latitude": -36.899991745701,
      "longitude": 174.65300575914,
      "address_line1": "4155 Great North Road, Glen Eden, Auckland",
      "city": "Auckland",
      "state_province": "Auckland",
      "postal_code": "0",
      "country": "NZ"
    },
    {
      "location_id": "F29C2C54-CF47-11EB-8D2C-5B2847150CC1",
      "brand_name": "Z Energy",
      "location_name": "Z Waiouru truck stop",
      "latitude": -39.479538981693,
      "longitude": 175.66947683373,
      "address_line1": "State Highway 1",
      "city": "Waiouru",
      "state_province": "Manawatu-Wanganui",
      "postal_code": "4825",
      "country": "NZ"
    },
    {
      "location_id": "F20FA4AA-CF47-11EB-8D7C-83F7911654D7",
      "brand_name": "Z Energy",
      "location_name": "Z Wairoa truck stop",
      "latitude": -39.035664030765,
      "longitude": 177.41834408775,
      "address_line1": "Achilles Street",
      "city": "Wairoa",
      "state_province": "Hawkes Bay",
      "postal_code": "4108",
      "country": "NZ"
    },
    {
      "location_id": "EEC4D680-CF47-11EB-8BFE-EF164B3F896A",
      "brand_name": "Z Energy",
      "location_name": "Z Waiuku",
      "latitude": -37.248930456704,
      "longitude": 174.73247369842,
      "address_line1": "16 Kitchener Road",
      "city": "Waiuku",
      "state_province": "Auckland",
      "postal_code": "2123",
      "country": "NZ"
    },
    {
      "location_id": "F32D0A76-CF47-11EB-90D1-C57D382E9156",
      "brand_name": "Z Energy",
      "location_name": "Z Waiwhakaiho truck stop",
      "latitude": -39.0512735746,
      "longitude": 174.11073359387,
      "address_line1": "Corner Devon Road & Smart Road",
      "city": "New Plymouth",
      "state_province": "Taranaki",
      "postal_code": "4312",
      "country": "NZ"
    },
    {
      "location_id": "FBA51D9C-CF47-11EB-9145-5BDDDC9BD4E6",
      "brand_name": "Z Energy",
      "location_name": "Z Warkworth",
      "latitude": -36.392379581111,
      "longitude": 174.65129802712,
      "address_line1": "1 Hudson Road, Warkworth",
      "city": "Warkworth",
      "state_province": "Auckland",
      "postal_code": "984",
      "country": "NZ"
    },
    {
      "location_id": "EFD84700-CF47-11EB-BB27-2B5DF2696786",
      "brand_name": "Z Energy",
      "location_name": "Z Whakatane",
      "latitude": -37.958715524823,
      "longitude": 176.98234993641,
      "address_line1": "Cnr Domain Road and King Street, Whakatane",
      "city": "Whakatane",
      "state_province": "Bay of Plenty",
      "postal_code": "3120",
      "country": "NZ"
    },
    {
      "location_id": "EF2889E6-CF47-11EB-AAA1-4386F3532A76",
      "brand_name": "Z Energy",
      "location_name": "Z Whangaparaoa",
      "latitude": -36.634395475252,
      "longitude": 174.73927240694,
      "address_line1": "651 Whangaparaoa Road, Whangaparaoa",
      "city": "Whangaparaoa",
      "state_province": "Auckland",
      "postal_code": "932",
      "country": "NZ"
    },
    {
      "location_id": "F59AA11A-CF47-11EB-83EE-57883A5C93CF",
      "brand_name": "Z Energy",
      "location_name": "Z Whitianga",
      "latitude": -36.836114199104,
      "longitude": 175.70395965882,
      "address_line1": "83-85 Albert Street, Whitianga",
      "city": "Whitianga",
      "state_province": "Waikato",
      "postal_code": "3510",
      "country": "NZ"
    },
    {
      "location_id": "EF3755DE-CF47-11EB-8F92-EBEF15CED1A0",
      "brand_name": "Z Energy",
      "location_name": "Z Windsor",
      "latitude": -39.64797872157,
      "longitude": 176.84923275679,
      "address_line1": "701 Heretaunga St East",
      "city": "Hastings",
      "state_province": "Hawkes Bay",
      "postal_code": "4122",
      "country": "NZ"
    },
    {
      "location_id": "EEE15062-CF47-11EB-B842-F153B37CB718",
      "brand_name": "Z Energy",
      "location_name": "Z Wiri Station Rd",
      "latitude": -36.999555744333,
      "longitude": 174.87121256953,
      "address_line1": "83 Wiri Station Road, Manukau City",
      "city": "Manukau City",
      "state_province": "Auckland",
      "postal_code": "2104",
      "country": "NZ"
    },
    {
      "location_id": "F1107534-CF47-11EB-9427-E301D8B0812E",
      "brand_name": "Z Energy",
      "location_name": "Z Woolston",
      "latitude": -43.5433383,
      "longitude": 172.668108,
      "address_line1": "417 Ferry Road, Christchurch",
      "city": "Christchurch",
      "state_province": "Canterbury",
      "postal_code": "8023",
      "country": "NZ"
    },
    {
      "location_id": "FC1C59A2-CF47-11EB-803B-217A4C17C690",
      "brand_name": "Z Energy",
      "location_name": "Z Karaka",
      "latitude": -37.073600913071,
      "longitude": 174.9255646062,
      "address_line1": "47 Harbourside Drive, Karaka, Auckland 2113",
      "city": "Auckland 2113",
      "state_province": "Auckland",
      "postal_code": "2113",
      "country": "NZ"
    },
    {
      "location_id": "FA13D6E4-CF47-11EB-BD51-EF86D5DD2176",
      "brand_name": "Z Energy",
      "location_name": "Z  Silverdale truck stop",
      "latitude": -36.6214218,
      "longitude": 174.6839177,
      "address_line1": "100 Foundry Road",
      "city": "Auckland",
      "state_province": "Auckland",
      "postal_code": "932",
      "country": "NZ"
    },
    {
      "location_id": "F7E45100-CF47-11EB-8833-D71279B6C24E",
      "brand_name": "Z Energy",
      "location_name": "Z Amberley",
      "latitude": -43.150455848528,
      "longitude": 172.73009671539,
      "address_line1": "47 Carters Road",
      "city": "Amberley",
      "state_province": "Canterbury",
      "postal_code": "7410",
      "country": "NZ"
    },
    {
      "location_id": "FD0981AA-CF47-11EB-B778-9D0932B798A6",
      "brand_name": "Z Energy",
      "location_name": "Z Ashburton",
      "latitude": -43.9048588,
      "longitude": 171.7453637,
      "address_line1": "141 West Street",
      "city": "Ashburton",
      "state_province": "Canterbury",
      "postal_code": "7700",
      "country": "NZ"
    },
    {
      "location_id": "F95F26FE-CF47-11EB-AD49-ABD427EDD84C",
      "brand_name": "Z Energy",
      "location_name": "Z Awakeri",
      "latitude": -37.998625927412,
      "longitude": 176.89111111821,
      "address_line1": "RD2, Whakatane",
      "city": "Whakatane",
      "state_province": "Bay of Plenty",
      "postal_code": "3192",
      "country": "NZ"
    },
    {
      "location_id": "FD11667C-CF47-11EB-B579-0F33CF82B5D0",
      "brand_name": "Z Energy",
      "location_name": "Z Balclutha",
      "latitude": -46.241667767316,
      "longitude": 169.73149261064,
      "address_line1": "High Street",
      "city": "Balclutha",
      "state_province": "Otago",
      "postal_code": "9230",
      "country": "NZ"
    },
    {
      "location_id": "F8000B8E-CF47-11EB-82EC-C72DE573F838",
      "brand_name": "Z Energy",
      "location_name": "Z Beach Rd",
      "latitude": -36.8497097,
      "longitude": 174.7749625,
      "address_line1": "150 Beach Road",
      "city": "Auckland",
      "state_province": "Auckland",
      "postal_code": "1010",
      "country": "NZ"
    },
    {
      "location_id": "F8DEEB74-CF47-11EB-A5D8-77637133C975",
      "brand_name": "Z Energy",
      "location_name": "Z Constellation Dr",
      "latitude": -36.748150239739,
      "longitude": 174.73173454025,
      "address_line1": "36 Constellation Drive",
      "city": "Mairangi Bay",
      "state_province": "Auckland",
      "postal_code": "632",
      "country": "NZ"
    },
    {
      "location_id": "FD20A844-CF47-11EB-89B5-B5E2FAA5DC97",
      "brand_name": "Z Energy",
      "location_name": "Z Cromwell",
      "latitude": -45.03654637,
      "longitude": 169.19878353,
      "address_line1": "Cnr Barry Avenue and Murray Terrace",
      "city": "Cromwell",
      "state_province": "Otago",
      "postal_code": "9310",
      "country": "NZ"
    },
    {
      "location_id": "F977A3B4-CF47-11EB-A5AB-7D40BDAFC1CE",
      "brand_name": "Z Energy",
      "location_name": "Z Dannevirke truck stop",
      "latitude": -40.13913751856,
      "longitude": 176.16089555803,
      "address_line1": "School Road (off State Highway 2)",
      "city": "Dannevirke",
      "state_province": "Hawkes Bay",
      "postal_code": "4977",
      "country": "NZ"
    },
    {
      "location_id": "F8774E7E-CF47-11EB-8281-939FD0C55D80",
      "brand_name": "Z Energy",
      "location_name": "Z Dee St",
      "latitude": -46.40502615335,
      "longitude": 168.34703856065,
      "address_line1": "206-214 Dee Street, Invercargill",
      "city": "Invercargill",
      "state_province": "Southland",
      "postal_code": "9810",
      "country": "NZ"
    },
    {
      "location_id": "F980528E-CF47-11EB-AB7E-71E717E73F46",
      "brand_name": "Z Energy",
      "location_name": "Z Dunedin truck stop",
      "latitude": -45.884114032674,
      "longitude": 170.50113275443,
      "address_line1": "Corner Cumberland & Wolseley Street",
      "city": "Dunedin",
      "state_province": "Otago",
      "postal_code": "9016",
      "country": "NZ"
    },
    {
      "location_id": "0DQ10",
      "brand_name": "BP",
      "location_name": "BP Whangarei Truckstop",
      "latitude": -35.739627,
      "longitude": 174.334488,
      "address_line1": "4-6 Kioreroa Road",
      "city": "Whangarei",
      "state_province": "Port Whangarei",
      "postal_code": null,
      "country": "NZ"
    },
    {
      "location_id": "F903D966-CF47-11EB-9F57-7728A3DD5DDC",
      "brand_name": "Z Energy",
      "location_name": "Z Fairy Springs",
      "latitude": -38.123038041543,
      "longitude": 176.23063938024,
      "address_line1": "23 Fairy Springs Road",
      "city": "Rotorua",
      "state_province": "Bay of Plenty",
      "postal_code": "3015",
      "country": "NZ"
    },
    {
      "location_id": "FD287236-CF47-11EB-9CF1-6DC01A7D874D",
      "brand_name": "Z Energy",
      "location_name": "Z Gisborne service station",
      "latitude": -38.662931782734,
      "longitude": 178.02113183974,
      "address_line1": "300 Gladstone Road",
      "city": "Gisborne",
      "state_province": "Gisborne",
      "postal_code": "4010",
      "country": "NZ"
    },
    {
      "location_id": "FD2D9E1E-CF47-11EB-9752-57E2F5163713",
      "brand_name": "Z Energy",
      "location_name": "Z Gore",
      "latitude": -46.097437628482,
      "longitude": 168.94501743518,
      "address_line1": "Corner Hokonui Drive & Irwell Street",
      "city": "Gore",
      "state_province": "Southland",
      "postal_code": "9710",
      "country": "NZ"
    },
    {
      "location_id": "F856019C-CF47-11EB-B990-BD10DE1591C1",
      "brand_name": "Z Energy",
      "location_name": "Z Greymouth",
      "latitude": -42.44946083606,
      "longitude": 171.21259659044,
      "address_line1": "Whall Street",
      "city": "Greymouth",
      "state_province": "West Coast",
      "postal_code": "7805",
      "country": "NZ"
    },
    {
      "location_id": "F837E50E-CF47-11EB-B28A-EB05CA687352",
      "brand_name": "Z Energy",
      "location_name": "Z Grove Rd",
      "latitude": -41.503038532609,
      "longitude": 173.96093567269,
      "address_line1": "Corner Grove Road & Budge Street",
      "city": "Blenheim",
      "state_province": "Marlborough",
      "postal_code": "7201",
      "country": "NZ"
    },
    {
      "location_id": "F98F8C4A-CF47-11EB-8C14-CF60E201CCE7",
      "brand_name": "Z Energy",
      "location_name": "Z Hamilton truck stop",
      "latitude": -37.785836337022,
      "longitude": 175.25549974214,
      "address_line1": "Corner Lincoln & Edgar Street",
      "city": "Hamilton",
      "state_province": "Waikato",
      "postal_code": "3204",
      "country": "NZ"
    },
    {
      "location_id": "F814F4CC-CF47-11EB-B892-0B47EB749C3A",
      "brand_name": "Z Energy",
      "location_name": "Z Harris Rd",
      "latitude": -36.929638782937,
      "longitude": 174.89670707491,
      "address_line1": "142 Harris Road",
      "city": "South Auckland",
      "state_province": "Auckland",
      "postal_code": "2013",
      "country": "NZ"
    },
    {
      "location_id": "F996F336-CF47-11EB-BB8F-7F1C4732DCE6",
      "brand_name": "Z Energy",
      "location_name": "Z Hastings truck stop",
      "latitude": -39.634172998759,
      "longitude": 176.82615910164,
      "address_line1": "Corner Maraekakaho Road & Francis Hicks Avenue",
      "city": "Hastings",
      "state_province": "Hawkes Bay",
      "postal_code": "4120",
      "country": "NZ"
    },
    {
      "location_id": "F8658FF4-CF47-11EB-811C-ED2D9CCF7C05",
      "brand_name": "Z Energy",
      "location_name": "Z Hawera",
      "latitude": -39.593929337827,
      "longitude": 174.28162061914,
      "address_line1": "Corner South Road & Princes Street",
      "city": "Hawera",
      "state_province": "Taranaki",
      "postal_code": "4610",
      "country": "NZ"
    },
    {
      "location_id": "F8AA89C4-CF47-11EB-B54F-79F4C1B98E74",
      "brand_name": "Z Energy",
      "location_name": "Z Hewletts Rd",
      "latitude": -37.665874772548,
      "longitude": 176.19920979262,
      "address_line1": "81 Hewletts Road",
      "city": "Mount Maunganui",
      "state_province": "Bay of Plenty",
      "postal_code": "3116",
      "country": "NZ"
    },
    {
      "location_id": "FD3F3FF2-CF47-11EB-AE32-C100F6D849DD",
      "brand_name": "Z Energy",
      "location_name": "Z Highbrook",
      "latitude": -36.937707012823,
      "longitude": 174.87263283157,
      "address_line1": "88 Highbrook Drive",
      "city": "Auckland",
      "state_province": "Auckland",
      "postal_code": "2013",
      "country": "NZ"
    },
    {
      "location_id": "FD4538DA-CF47-11EB-B6D5-4196B1E01846",
      "brand_name": "Z Energy",
      "location_name": "Z Hornby",
      "latitude": -43.53833115,
      "longitude": 172.52830404,
      "address_line1": "Corner Carmen Road & Waterloo Road",
      "city": "Christchurch",
      "state_province": "Canterbury",
      "postal_code": "8042",
      "country": "NZ"
    },
    {
      "location_id": "F9A42920-CF47-11EB-8081-19EB34E92F2C",
      "brand_name": "Z Energy",
      "location_name": "Z Kaikoura truck stop",
      "latitude": -42.39078854609,
      "longitude": 173.67951687368,
      "address_line1": "Beach Road",
      "city": "Kaikoura",
      "state_province": "Canterbury",
      "postal_code": "7300",
      "country": "NZ"
    },
    {
      "location_id": "F9AB7EFA-CF47-11EB-A314-65EE496A35D3",
      "brand_name": "Z Energy",
      "location_name": "Z Kinleith truck stop",
      "latitude": -38.281649009979,
      "longitude": 175.87771120369,
      "address_line1": "Tram Road",
      "city": "Kinleith",
      "state_province": "Waikato",
      "postal_code": "3491",
      "country": "NZ"
    },
    {
      "location_id": "F89962D4-CF47-11EB-8002-E5B60B2E8407",
      "brand_name": "Z Energy",
      "location_name": "Z Lakewood Court",
      "latitude": -36.994998528989,
      "longitude": 174.88616604096,
      "address_line1": "742 Great South Road",
      "city": "Manukau City",
      "state_province": "Auckland",
      "postal_code": "2104",
      "country": "NZ"
    },
    {
      "location_id": "FD4CE8AA-CF47-11EB-8714-CBBBBB1A1B59",
      "brand_name": "Z Energy",
      "location_name": "Z Levin",
      "latitude": -40.632041224827,
      "longitude": 175.27638888635,
      "address_line1": "11-15 Oxford Street",
      "city": "Levin",
      "state_province": "Manawatu-Wanganui",
      "postal_code": "5510",
      "country": "NZ"
    },
    {
      "location_id": "F9B83352-CF47-11EB-BE4E-5B9FC359BCA4",
      "brand_name": "Z Energy",
      "location_name": "Z Maramarua truck stop",
      "latitude": -37.249209395624,
      "longitude": 175.20340923223,
      "address_line1": "State Highway 2",
      "city": "Maramarua",
      "state_province": "Waikato",
      "postal_code": "2471",
      "country": "NZ"
    },
    {
      "location_id": "F8265230-CF47-11EB-AC5F-CFF3C732EB2F",
      "brand_name": "Z Energy",
      "location_name": "Z Massey North",
      "latitude": -36.821299983227,
      "longitude": 174.60862511409,
      "address_line1": "Corner State Highway 16 & Asti Lane",
      "city": "West Auckland",
      "state_province": "Auckland",
      "postal_code": "814",
      "country": "NZ"
    },
    {
      "location_id": "FD549F50-CF47-11EB-8844-97406FCE1D6A",
      "brand_name": "Z Energy",
      "location_name": "Z Masterton",
      "latitude": -40.950288811684,
      "longitude": 175.65839152869,
      "address_line1": "80 Chapel Street",
      "city": "Masterton",
      "state_province": "Wellington",
      "postal_code": "5810",
      "country": "NZ"
    },
    {
      "location_id": "F9C638D0-CF47-11EB-8C13-73815B86078F",
      "brand_name": "Z Energy",
      "location_name": "Z Methven truck stop",
      "latitude": -43.638667708016,
      "longitude": 171.65432362938,
      "address_line1": "Line Road",
      "city": "Methven",
      "state_province": "Canterbury",
      "postal_code": "7776",
      "country": "NZ"
    },
    {
      "location_id": "FA321370-CF47-11EB-A56A-BB40563A9626",
      "brand_name": "Z Energy",
      "location_name": "Z Miro St truck stop",
      "latitude": -38.687257388241,
      "longitude": 176.10696398027,
      "address_line1": "63 Miro Street",
      "city": "Taupo",
      "state_province": "Waikato",
      "postal_code": "3330",
      "country": "NZ"
    },
    {
      "location_id": "F9D6792A-CF47-11EB-973A-B52919E7725D",
      "brand_name": "Z Energy",
      "location_name": "Z Napier truck stop",
      "latitude": -39.5017825,
      "longitude": 176.8858759,
      "address_line1": "Austin Street",
      "city": "Napier",
      "state_province": "Hawkes Bay",
      "postal_code": "4110",
      "country": "NZ"
    },
    {
      "location_id": "F8C8D78A-CF47-11EB-9BE3-A116776AB5AB",
      "brand_name": "Z Energy",
      "location_name": "Z Ngatea",
      "latitude": -37.276349880813,
      "longitude": 175.49078364108,
      "address_line1": "77 Orchard West Road",
      "city": "Ngatea",
      "state_province": "Waikato",
      "postal_code": "3503",
      "country": "NZ"
    },
    {
      "location_id": "FD5B663C-CF47-11EB-90BB-0F9824C55D9D",
      "brand_name": "Z Energy",
      "location_name": "Z Oamaru",
      "latitude": -45.0983148,
      "longitude": 170.9680646,
      "address_line1": "22 Severn Street",
      "city": "Oamaru",
      "state_province": "Otago",
      "postal_code": "9400",
      "country": "NZ"
    },
    {
      "location_id": "F4050DAE-CF47-11EB-BFC3-FB9485C235F4",
      "brand_name": "Z Energy",
      "location_name": "Z Palmerston North truck stop",
      "latitude": -40.322972253576,
      "longitude": 175.6265759075,
      "address_line1": "Corner Setters Line & Railway Road",
      "city": "Palmerston North",
      "state_province": "Manawatu-Wanganui",
      "postal_code": "4474",
      "country": "NZ"
    },
    {
      "location_id": "F888AE1C-CF47-11EB-9AF3-8F6B840868CF",
      "brand_name": "Z Energy",
      "location_name": "Z Petone",
      "latitude": -41.222733455021,
      "longitude": 174.86874334609,
      "address_line1": "Corner Jackson Street & Hutt Road",
      "city": "Wellington",
      "state_province": "Wellington",
      "postal_code": "5012",
      "country": "NZ"
    },
    {
      "location_id": "F9ECAD9E-CF47-11EB-B4BC-69773FEBF064",
      "brand_name": "Z Energy",
      "location_name": "Z Pokeno truck stop",
      "latitude": -37.246426575358,
      "longitude": 175.02292593845,
      "address_line1": "Great South Road",
      "city": "Pokeno",
      "state_province": "Waikato",
      "postal_code": "2471",
      "country": "NZ"
    },
    {
      "location_id": "F9F40594-CF47-11EB-A18B-C5EFC76C5FDA",
      "brand_name": "Z Energy",
      "location_name": "Z Port Hills truck stop",
      "latitude": -43.5661084,
      "longitude": 172.6813822,
      "address_line1": "Port Hills Road",
      "city": "Christchurch",
      "state_province": "Canterbury",
      "postal_code": "8022",
      "country": "NZ"
    },
    {
      "location_id": "FD63BB84-CF47-11EB-8635-B957CB688CF1",
      "brand_name": "Z Energy",
      "location_name": "Z Richmond",
      "latitude": -41.337409382176,
      "longitude": 173.18016119552,
      "address_line1": "8 Gladstone Road",
      "city": "Nelson",
      "state_province": "Tasman",
      "postal_code": "7020",
      "country": "NZ"
    },
    {
      "location_id": "FAC05324-CF47-11EB-8A31-116B3FAD7FC1",
      "brand_name": "Z Energy",
      "location_name": "Z Roscommon Rd",
      "latitude": -37.0037389,
      "longitude": 174.8534937,
      "address_line1": "147 Roscommon Rd",
      "city": "Auckland",
      "state_province": "Auckland",
      "postal_code": "2023",
      "country": "NZ"
    },
    {
      "location_id": "FA045E44-CF47-11EB-8F0C-2393EACBC347",
      "brand_name": "Z Energy",
      "location_name": "Z Rotorua truck stop",
      "latitude": -38.154537153277,
      "longitude": 176.26365369004,
      "address_line1": "Sala Street",
      "city": "Rotorua",
      "state_province": "Bay of Plenty",
      "postal_code": "3010",
      "country": "NZ"
    },
    {
      "location_id": "F914B646-CF47-11EB-9431-D1FACE944294",
      "brand_name": "Z Energy",
      "location_name": "Z Sanson",
      "latitude": -40.219682013492,
      "longitude": 175.42310941448,
      "address_line1": "State Highway 1",
      "city": "Sanson",
      "state_province": "Manawatu-Wanganui",
      "postal_code": "4817",
      "country": "NZ"
    },
    {
      "location_id": "FA0BF4F6-CF47-11EB-99FA-A1A4F8C304D5",
      "brand_name": "Z Energy",
      "location_name": "Z Sawyers Arms Rd truck stop",
      "latitude": -43.470257680052,
      "longitude": 172.56819906379,
      "address_line1": "Sawyers Arms Road",
      "city": "Christchurch",
      "state_province": "Canterbury",
      "postal_code": "8053",
      "country": "NZ"
    },
    {
      "location_id": "FD6E4D38-CF47-11EB-BA7B-01B1A14E119C",
      "brand_name": "Z Energy",
      "location_name": "Z Seaview",
      "latitude": -41.236222546845,
      "longitude": 174.90620262646,
      "address_line1": "Cnr Seaview Road and Parkside Road",
      "city": "Lower Hutt",
      "state_province": "Wellington",
      "postal_code": "5010",
      "country": "NZ"
    },
    {
      "location_id": "FD73FC06-CF47-11EB-81CE-45973EE34F41",
      "brand_name": "Z Energy",
      "location_name": "Z Sylvia Park",
      "latitude": -36.9247476,
      "longitude": 174.841888,
      "address_line1": "510 Mount Wellington Highway",
      "city": "Auckland",
      "state_province": "Auckland",
      "postal_code": "1060",
      "country": "NZ"
    },
    {
      "location_id": "FA22DFD6-CF47-11EB-9CD0-4F6227873D90",
      "brand_name": "Z Energy",
      "location_name": "Z Takaka truck stop",
      "latitude": -40.85654671482,
      "longitude": 172.80721821456,
      "address_line1": "96 Commercial Street",
      "city": "Takaka",
      "state_province": "Tasman",
      "postal_code": "7110",
      "country": "NZ"
    },
    {
      "location_id": "F9324EC2-CF47-11EB-A831-A918349B437C",
      "brand_name": "Z Energy",
      "location_name": "Z Te Kuiti",
      "latitude": -38.3239323,
      "longitude": 175.1527984,
      "address_line1": "76 Te Kumi Road",
      "city": "Te Kuiti",
      "state_province": "Waikato",
      "postal_code": "3910",
      "country": "NZ"
    },
    {
      "location_id": "F84712A4-CF47-11EB-A26D-F52EB8404498",
      "brand_name": "Z Energy",
      "location_name": "Z Templeton",
      "latitude": -43.54963876,
      "longitude": 172.4884657,
      "address_line1": "720 Main South Road",
      "city": "Templeton",
      "state_province": "Canterbury",
      "postal_code": "8042",
      "country": "NZ"
    },
    {
      "location_id": "FA4130E4-CF47-11EB-9675-51AD3E0525FA",
      "brand_name": "Z Energy",
      "location_name": "Z Tirau truck stop",
      "latitude": -37.973933272176,
      "longitude": 175.75397198984,
      "address_line1": "Corner State Highway 1 & State Highway 27",
      "city": "Tirau",
      "state_province": "Waikato",
      "postal_code": "3410",
      "country": "NZ"
    },
    {
      "location_id": "FA6F7C42-CF47-11EB-B62B-ADF005818F99",
      "brand_name": "Z Energy",
      "location_name": "Z Tokoroa truck stop",
      "latitude": -38.23474613894,
      "longitude": 175.87980594524,
      "address_line1": "Browning Street",
      "city": "Tokoroa",
      "state_province": "Waikato",
      "postal_code": "7011",
      "country": "NZ"
    },
    {
      "location_id": "F944D2CC-CF47-11EB-9676-89D4D655C3BF",
      "brand_name": "Z Energy",
      "location_name": "Z Turangi",
      "latitude": -38.990568649233,
      "longitude": 175.8098671427,
      "address_line1": "Corner State Highway 1 & Pihanga Road",
      "city": "Turangi",
      "state_province": "Waikato",
      "postal_code": "3334",
      "country": "NZ"
    },
    {
      "location_id": "FA487656-CF47-11EB-B738-913FDE47102C",
      "brand_name": "Z Energy",
      "location_name": "Z Waharoa truck stop",
      "latitude": -37.756634861109,
      "longitude": 175.74961528034,
      "address_line1": "Factory Road",
      "city": "Waharoa",
      "state_province": "Waikato",
      "postal_code": "3401",
      "country": "NZ"
    },
    {
      "location_id": "FD88F3CC-CF47-11EB-BE61-5BCAAC0D2DDC",
      "brand_name": "Z Energy",
      "location_name": "Z Waiouru",
      "latitude": -39.479141116948,
      "longitude": 175.66916271922,
      "address_line1": "State Highway 1",
      "city": "Waiouru",
      "state_province": "Manawatu-Wanganui",
      "postal_code": "4825",
      "country": "NZ"
    },
    {
      "location_id": "FBF232E4-CF47-11EB-AE9B-D5FEB8E8DB8F",
      "brand_name": "Z Energy",
      "location_name": "Z Waipapa truck stop",
      "latitude": -35.217053122321,
      "longitude": 173.91952551619,
      "address_line1": "1913 State Highway 10",
      "city": "Waipapa",
      "state_province": "Northland",
      "postal_code": "295",
      "country": "NZ"
    },
    {
      "location_id": "F95484C4-CF47-11EB-AF13-1D8C33800860",
      "brand_name": "Z Energy",
      "location_name": "Z Wairoa",
      "latitude": -39.0355566,
      "longitude": 177.4180775,
      "address_line1": "3 Achilles Street",
      "city": "Wairoa",
      "state_province": "Hawkes Bay",
      "postal_code": "4108",
      "country": "NZ"
    },
    {
      "location_id": "F8BAB420-CF47-11EB-AAE4-D7C84EB8604D",
      "brand_name": "Z Energy",
      "location_name": "Z Waiwhakaiho",
      "latitude": -39.050693226329,
      "longitude": 174.11094539429,
      "address_line1": "Corner Devon Road & Smart Road",
      "city": "New Plymouth",
      "state_province": "Taranaki",
      "postal_code": "4312",
      "country": "NZ"
    },
    {
      "location_id": "FA5D8A46-CF47-11EB-A6F4-C136DDD35EF0",
      "brand_name": "Z Energy",
      "location_name": "Z Whangarei truck stop",
      "latitude": -35.741521676756,
      "longitude": 174.33195843096,
      "address_line1": "Kioreroa Road",
      "city": "Whangarei",
      "state_province": "Northland",
      "postal_code": "110",
      "country": "NZ"
    },
    {
      "location_id": "FA67EA90-CF47-11EB-B2CA-9D0C1936F5BF",
      "brand_name": "Z Energy",
      "location_name": "Z Winton truck stop",
      "latitude": -46.152475902345,
      "longitude": 168.32991591529,
      "address_line1": "39 Great North Road",
      "city": "Winton",
      "state_province": "Southland",
      "postal_code": "9720",
      "country": "NZ"
    },
    {
      "location_id": "F041AC7C-CF47-11EB-AF80-45A06CFEC8A8",
      "brand_name": "Z Energy",
      "location_name": "Z Washdyke truck stop",
      "latitude": -44.35610078733,
      "longitude": 171.25175145966,
      "address_line1": "55 Sheffield Street",
      "city": "Timaru",
      "state_province": "South Canterbury",
      "postal_code": "7910",
      "country": "NZ"
    },
    {
      "location_id": "FC224F38-CF47-11EB-A9D6-C57B8FE984E4",
      "brand_name": "Z Energy",
      "location_name": "Z Bombay",
      "latitude": -37.1920051,
      "longitude": 174.983444,
      "address_line1": "Cnr Mill Road & Great South Road",
      "city": "Auckland",
      "state_province": "Auckland",
      "postal_code": "2675",
      "country": "NZ"
    },
    {
      "location_id": "FC356776-CF47-11EB-8D15-0F53AE1299E1",
      "brand_name": "Z Energy",
      "location_name": "Z Russley",
      "latitude": -43.5200772,
      "longitude": 172.5349803,
      "address_line1": "2 Russley Road, Russley, Christchurch",
      "city": "Christchurch",
      "state_province": "Canterbury",
      "postal_code": "0",
      "country": "NZ"
    },
    {
      "location_id": "FC4A00F0-CF47-11EB-BB17-6BFC9C1A502F",
      "brand_name": "Z Energy",
      "location_name": "Z Rangiora",
      "latitude": -43.30378,
      "longitude": 172.58992,
      "address_line1": "300 High Street, Waimakariri, Rangiora 7400",
      "city": "Rangiora 7400",
      "state_province": "Canterbury",
      "postal_code": "7400",
      "country": "NZ"
    },
    {
      "location_id": "FC73CF3E-CF47-11EB-8C6E-D37472A90B10",
      "brand_name": "Z Energy",
      "location_name": "Z Sandringham",
      "latitude": -36.8848664,
      "longitude": 174.7387294,
      "address_line1": "340 Sandringham Road, Auckland",
      "city": "Auckland",
      "state_province": "Auckland",
      "postal_code": "1025",
      "country": "NZ"
    },
    {
      "location_id": "62625746-523F-11EC-A4FE-D1A526943EE7",
      "brand_name": "Z Energy",
      "location_name": "Z Rolleston",
      "latitude": -43.591787854686,
      "longitude": 172.37724770367,
      "address_line1": "4 Brookside Road",
      "city": "Christchurch",
      "state_province": "Canterbury",
      "postal_code": "7614",
      "country": "NZ"
    },
    {
      "location_id": "850447D2-CB1B-11EC-94D5-B7745AA95151",
      "brand_name": "Z Energy",
      "location_name": "Z Ashburton South truck stop",
      "latitude": -43.911969989802,
      "longitude": 171.74642592004,
      "address_line1": "128 South Street, Ashburton",
      "city": "Ashburton",
      "state_province": null,
      "postal_code": "7700",
      "country": "NZ"
    },
    {
      "location_id": "BA9F951E-1912-11ED-AEE6-C5326479DA1C",
      "brand_name": "Z Energy",
      "location_name": "Z Remutaka",
      "latitude": -41.108919284926,
      "longitude": 175.09742188709,
      "address_line1": "1193 Fergusson Drive North",
      "city": "Upper Hutt",
      "state_province": "Wellington",
      "postal_code": "5018",
      "country": "NZ"
    },
    {
      "location_id": "F3CB25FA-2CCD-11ED-A4C8-5132A77B1597",
      "brand_name": "Z Energy",
      "location_name": "Z Remutaka truck stop",
      "latitude": -41.108919284926,
      "longitude": 175.09742188709,
      "address_line1": "1193 Fergusson Drive North",
      "city": "Upper Hutt",
      "state_province": "Wellington",
      "postal_code": "5018",
      "country": "NZ"
    },
    {
      "location_id": "9DD35F5E-5965-11ED-B183-AD61B07A6118",
      "brand_name": "Z Energy",
      "location_name": "Z Nelson Port truck stop",
      "latitude": -41.26445,
      "longitude": 173.27538,
      "address_line1": "Corner Wildman Ave & Hay Street",
      "city": "Nelson",
      "state_province": "Nelson",
      "postal_code": "0",
      "country": "NZ"
    },
    {
      "location_id": "90943766-DFF5-11ED-AFAB-E1DC1A404F32",
      "brand_name": "Z Energy",
      "location_name": "Z Bombay truck stop",
      "latitude": -37.191626521472,
      "longitude": 174.9837216206,
      "address_line1": "Great South Road",
      "city": "Auckland",
      "state_province": "Auckland",
      "postal_code": "1062",
      "country": "NZ"
    },
    {
      "location_id": "0DQ12",
      "brand_name": "BP",
      "location_name": "BP Whitianga Truckstop",
      "latitude": -36.836992,
      "longitude": 175.678039,
      "address_line1": "199 South Highway",
      "city": "Whitianga",
      "state_province": "",
      "postal_code": null,
      "country": "NZ"
    },